금연구역명,금연구역범위상세,시도명,시군구명,금연구역구분,금연구역지정근거명,금연구역면적,위반과태료,위반신고전화번호,소재지도로명주소,소재지지번주소,관리기관명,위도,경도,데이터기준일자
새문안로2길 일대,새문안로2길 일대,서울특별시,종로구,거리,서울특별시 종로구 금연환경조성 및 간접흡연 피해방지 조례,652,100000,02-2148-3544,서울특별시 종로구 새문안로2길,,서울특별시 종로구청,,,2021-07-12
흥인지문 공원,흥인지문 공원,서울특별시,종로구,도시공원,서울특별시 종로구,11.5197,100000,02-2148-3544,서울특별시 종로구 종로6가 70,,서울특별시 종로구청,,,2021-07-12
옥인어린이 공원,옥인어린이 공원,서울특별시,종로구,도시공원,서울특별시 종로구,472.1,100000,02-2148-3544,서울특별시 종로구 옥인동 187-2,,서울특별시 종로구청,,,2021-07-12
무악어린이 공원,무악어린이 공원,서울특별시,종로구,도시공원,서울특별시 종로구,5.136,100000,02-2148-3544,서울특별시 종로구 무악동 산2-83,,서울특별시 종로구청,,,2021-07-12
부암튼튼,부암튼튼,서울특별시,종로구,도시공원,서울특별시 종로구,1.258,100000,02-2148-3544,서울특별시 종로구 부암동 262-1,,서울특별시 종로구청,,,2021-07-12
백동어린이 놀이터,백동어린이 놀이터,서울특별시,종로구,도시공원,서울특별시 종로구,209.9,100000,02-2148-3544,서울특별시 종로구 동숭동 2-34 일대,,서울특별시 종로구청,,,2021-07-12
숭인어린이 놀이터,숭인어린이 놀이터,서울특별시,종로구,도시공원,서울특별시 종로구,402,100000,02-2148-3544,서울특별시 종로구 숭인동 605,,서울특별시 종로구청,,,2021-07-12
귀빈예식장옆 쉼터,귀빈예식장옆 쉼터,서울특별시,종로구,도시공원,서울특별시 종로구,820,100000,02-2148-3544,서울특별시 종로구 평창동 43-3,,서울특별시 종로구청,,,2021-07-12
평창아띠,평창아띠,서울특별시,종로구,도시공원,서울특별시 종로구,450,100000,02-2148-3544,서울특별시 종로구 평창동 273-3,,서울특별시 종로구청,,,2021-07-12
창이어린이 놀이터,창이어린이 놀이터,서울특별시,종로구,도시공원,서울특별시 종로구,766,100000,02-2148-3544,서울특별시 종로구 창신동 622-12,,서울특별시 종로구청,,,2021-07-12
세종마을어린이 놀이터,세종마을어린이 놀이터,서울특별시,종로구,도시공원,서울특별시 종로구,500,100000,02-2148-3544,서울특별시 종로구 옥인동 23-350,,서울특별시 종로구청,,,2021-07-12
산마루 놀이터,산마루 놀이터,서울특별시,종로구,도시공원,서울특별시 종로구,2.187,100000,02-2148-3544,서울특별시 종로구 창신동 23-350,,서울특별시 종로구청,,,2021-07-12
공평지구,공평지구,서울특별시,종로구,도시공원,서울특별시 종로구,219.9,100000,02-2148-3544,서울특별시 종로구 인사동 275일대,,서울특별시 종로구청,,,2021-07-12
"도렴4,5지구","도렴4,5지구",서울특별시,종로구,도시공원,서울특별시 종로구,527.6,100000,02-2148-3544,서울특별시 종로구 신문로1가 240-2,,서울특별시 종로구청,,,2021-07-12
의주,의주,서울특별시,종로구,도시공원,서울특별시 종로구,364,100000,02-2148-3544,서울특별시 종로구 무악동 89-1,,서울특별시 종로구청,,,2021-07-12
원서,원서,서울특별시,종로구,도시공원,서울특별시 종로구,10.0046,100000,02-2148-3544,서울특별시 종로구 원서동 181,,서울특별시 종로구청,,,2021-07-12
창덕,창덕,서울특별시,종로구,도시공원,서울특별시 종로구,6.75,100000,02-2148-3544,서울특별시 종로구 와룡동 2-71,,서울특별시 종로구청,,,2021-07-12
달바위,달바위,서울특별시,종로구,도시공원,서울특별시 종로구,3.3178,100000,02-2148-3544,서울특별시 종로구 송월동 145-2,,서울특별시 종로구청,,,2021-07-12
솔빛,솔빛,서울특별시,종로구,도시공원,서울특별시 종로구,1.7933,100000,02-2148-3544,서울특별시 종로구 송월동 145-3,,서울특별시 종로구청,,,2021-07-12
소담,소담,서울특별시,종로구,도시공원,서울특별시 종로구,491.4,100000,02-2148-3544,서울특별시 종로구 행촌동 211-4,,서울특별시 종로구청,,,2021-07-12
종묘광장,종묘광장,서울특별시,종로구,도시공원,서울특별시 종로구,42.045,100000,02-2148-3544,서울특별시 종로구 훈정동 2,,서울특별시 종로구청,,,2021-07-12
"교보~KT, D타워~KT사잇길","교보~KT, D타워~KT사잇길",서울특별시,종로구,거리,서울특별시 종로구 금연환경조성 및 간접흡연 피해방지 조례,,100000,02-2148-3544,서울특별시 종로구 종로1길 42,,서울특별시 종로구청,37.57390428,126.9789853,2021-07-12
그랑서울과 SC은행 사이 보행로,그랑서울과 SC은행 사이 보행로,서울특별시,종로구,거리,서울특별시 종로구 금연환경조성 및 간접흡연 피해방지 조례,273.15,100000,02-2148-3544,서울특별시 종로구 종로 33,,서울특별시 종로구청,37.57096024,126.9814402,2021-07-12
인사동길,인사동길 주거리,서울특별시,종로구,거리,서울특별시 종로구 금연환경조성 및 간접흡연 피해방지 조례,580,100000,02-2148-3544,서울특별시 종로구 인사동길 59,,서울특별시 종로구청,37.57514475,126.9833863,2021-07-12
중학천 보행로,중학천 보행로,서울특별시,종로구,거리,서울특별시 종로구 금연환경조성 및 간접흡연 피해방지 조례,219.87,100000,02-2148-3544,서울특별시 종로구 종로3길 17,,서울특별시 종로구청,37.570922,126.9789137,2021-07-12
청진공원 주변보도,청진공원 주변보도,서울특별시,종로구,거리,서울특별시 종로구 금연환경조성 및 간접흡연 피해방지 조례,,100000,02-2148-3544,서울특별시 종로구 종로3길 24-15,,서울특별시 종로구청,37.57167716,126.9797421,2021-07-12
효제초등학교 주변 보행로,효제초등학교 주변 보행로,서울특별시,종로구,거리,서울특별시 종로구 금연환경조성 및 간접흡연 피해방지 조례,,100000,02-2148-3544,서울특별시 종로구 김상옥로 42-1,,서울특별시 종로구청,37.57316011,127.0024315,2021-07-12
종로구청 주변 도로,"삼봉로, 종로1길, 종로3길, 종로5길 양쪽 보도 및 차도 1,500m/ 교보생명~광화문KT 앞 보도 250m",서울특별시,종로구,거리,서울특별시 종로구 금연환경조성 및 간접흡연 피해방지 조례,,100000,02-2148-3544,서울특별시 종로구 삼봉로 43,,서울특별시 종로구청,37.57319787,126.9788134,2021-07-12
서울대학교병원 주변 보도 및 이면도로,"서울대병원 후문 함춘회관 ~ 우체국한사랑의집(대학로5길), 194m/혜화역 3번 출입구 ~ 함춘약국(대학로 93 ~ 133), 247m",서울특별시,종로구,거리,서울특별시 종로구 금연환경조성 및 간접흡연 피해방지 조례,,100000,02-2148-3544,서울특별시 종로구 대학로 5길 61,,서울특별시 종로구청,37.57968692,127.0017027,2021-07-12
서울지방국세청 어린이집 주변,수송동 80-1(도로) 일대,서울특별시,종로구,거리,서울특별시 종로구 금연환경조성 및 간접흡연 피해방지 조례,,100000,02-2148-3544,서울특별시 종로구 종로5길 76,,서울특별시 종로구청,37.57392263,126.9808916,2021-07-12
경희궁공원,공원면적 전체,서울특별시,종로구,도시공원,서울특별시 종로구 금연환경조성 및 간접흡연 피해방지 조례,100930,100000,02-2148-3544,서울특별시 종로구 새문안로 55,,서울특별시 종로구청,37.57049685,126.9710752,2021-07-12
내수2공원,공원면적 전체,서울특별시,종로구,도시공원,서울특별시 종로구 금연환경조성 및 간접흡연 피해방지 조례,2192.2,100000,02-2148-3544,서울특별시 종로구 새문안로3길 17-5,,서울특별시 종로구청,37.57191705,126.9720536,2021-07-12
당고개어린이공원,공원면적 전체,서울특별시,종로구,도시공원,서울특별시 종로구 금연환경조성 및 간접흡연 피해방지 조례,860,100000,02-2148-3544,서울특별시 종로구 창신6가길 36,,서울특별시 종로구청,37.57543715,127.0128056,2021-07-12
동대문성곽공원,공원면적 전체,서울특별시,종로구,도시공원,서울특별시 종로구 금연환경조성 및 간접흡연 피해방지 조례,8944,100000,02-2148-3544,서울특별시 종로구 율곡로 283,,서울특별시 종로구청,37.57285709,127.0085126,2021-07-12
동묘공원,공원면적 전체,서울특별시,종로구,도시공원,서울특별시 종로구 금연환경조성 및 간접흡연 피해방지 조례,8450,100000,02-2148-3544,서울특별시 종로구 종로60길 25,,서울특별시 종로구청,37.57265765,127.0189858,2021-07-12
마로니에공원,공원면적 전체,서울특별시,종로구,도시공원,서울특별시 종로구 금연환경조성 및 간접흡연 피해방지 조례,5802,100000,02-2148-3544,서울특별시 종로구 동숭길 3,,서울특별시 종로구청,37.580506,127.003256,2021-07-12
명륜,공원면적 전체,서울특별시,종로구,도시공원,서울특별시 종로구 금연환경조성 및 간접흡연 피해방지 조례,1149.5,100000,02-2148-3544,서울특별시 종로구 혜화로9길 24-9,,서울특별시 종로구청,37.588014,126.998265,2021-07-12
북악산공원,공원면적 전체,서울특별시,종로구,도시공원,서울특별시 종로구 금연환경조성 및 간접흡연 피해방지 조례,954553,100000,02-2148-3544,서울특별시 종로구 북악산로 267,,서울특별시 종로구청,37.60197588,126.9805492,2021-07-12
북한산공원,공원면적 전체,서울특별시,종로구,도시공원,서울특별시 종로구 금연환경조성 및 간접흡연 피해방지 조례,1667848,100000,02-2148-3544,서울특별시 종로구 창의문로 42,,서울특별시 종로구청,37.59132439,126.9717837,2021-07-12
사직공원,공원면적 전체,서울특별시,종로구,도시공원,서울특별시 종로구 금연환경조성 및 간접흡연 피해방지 조례,168100,100000,02-2148-3544,서울특별시 종로구 사직로 89,,서울특별시 종로구청,37.57560285,126.967832,2021-07-12
삼청공원,공원면적 전체,서울특별시,종로구,도시공원,서울특별시 종로구 금연환경조성 및 간접흡연 피해방지 조례,372418,100000,02-2148-3544,서울특별시 종로구 북촌로 134-3,,서울특별시 종로구청,37.5879786,126.9840854,2021-07-12
서린공원,공원면적 전체,서울특별시,종로구,도시공원,서울특별시 종로구 금연환경조성 및 간접흡연 피해방지 조례,1515,100000,02-2148-3544,서울특별시 종로구 청계천로 35,,서울특별시 종로구청,37.56933844,126.9813773,2021-07-12
수송공원,공원면적 전체,서울특별시,종로구,도시공원,서울특별시 종로구 금연환경조성 및 간접흡연 피해방지 조례,3521.9,100000,02-2148-3544,서울특별시 종로구 종로5길 76,,서울특별시 종로구청,37.57392263,126.9808916,2021-07-12
숭인공원,공원면적 전체,서울특별시,종로구,도시공원,서울특별시 종로구 금연환경조성 및 간접흡연 피해방지 조례,45615,100000,02-2148-3544,서울특별시 종로구 동망산길 150,,서울특별시 종로구청,37.57756126,127.0181626,2021-07-12
연지1,공원면적 전체,서울특별시,종로구,도시공원,서울특별시 종로구 금연환경조성 및 간접흡연 피해방지 조례,474.2,100000,02-2148-3544,서울특별시 종로구 대학로3길 9,,서울특별시 종로구청,37.57398543,127.0013448,2021-07-12
연지공원,공원면적 전체,서울특별시,종로구,도시공원,서울특별시 종로구 금연환경조성 및 간접흡연 피해방지 조례,2827.6,100000,02-2148-3544,서울특별시 종로구 율곡로 194,,서울특별시 종로구청,37.57531891,127.000794,2021-07-12
와룡공원,공원면적 전체,서울특별시,종로구,도시공원,서울특별시 종로구 금연환경조성 및 간접흡연 피해방지 조례,204369,100000,02-2148-3544,서울특별시 종로구 명륜10길 2-17,,서울특별시 종로구청,37.59150413,126.9927217,2021-07-12
월암공원,공원면적 전체,서울특별시,종로구,도시공원,서울특별시 종로구 금연환경조성 및 간접흡연 피해방지 조례,10662,100000,02-2148-3544,서울특별시 종로구 송월길 52,,서울특별시 종로구청,37.57022174,126.9662042,2021-07-12
인왕,공원면적 전체,서울특별시,종로구,도시공원,서울특별시 종로구 금연환경조성 및 간접흡연 피해방지 조례,1745.8,100000,02-2148-3544,서울특별시 종로구 통일로18가길 50,,서울특별시 종로구청,37.57768639,126.9577964,2021-07-12
인왕산공원,공원면적 전체,서울특별시,종로구,도시공원,서울특별시 종로구 금연환경조성 및 간접흡연 피해방지 조례,1111664.9,100000,02-2148-3544,서울특별시 종로구 통일로18가길 50,,서울특별시 종로구청,37.57768639,126.9577964,2021-07-12
지봉골공원,공원면적 전체,서울특별시,종로구,도시공원,서울특별시 종로구 금연환경조성 및 간접흡연 피해방지 조례,2961,100000,02-2148-3544,서울특별시 종로구 지봉로13길 14,,서울특별시 종로구청,37.57894723,127.0144681,2021-07-12
창신어린이공원,공원면적 전체,서울특별시,종로구,도시공원,서울특별시 종로구 금연환경조성 및 간접흡연 피해방지 조례,710,100000,02-2148-3544,서울특별시 종로구 지봉로13길 64-2,,서울특별시 종로구청,37.57781216,127.012892,2021-07-12
청진공원,공원면적 전체,서울특별시,종로구,도시공원,서울특별시 종로구 금연환경조성 및 간접흡연 피해방지 조례,3341,100000,02-2148-3544,서울특별시 종로구 종로3길 24-18,,서울특별시 종로구청,37.57146101,126.9802629,2021-07-12
탑골공원,공원면적 전체,서울특별시,종로구,도시공원,서울특별시 종로구 금연환경조성 및 간접흡연 피해방지 조례,19599.7,100000,02-2148-3544,서울특별시 종로구 종로 99,,서울특별시 종로구청,37.57061151,126.9880601,2021-07-12
평창소공원,공원면적 전체,서울특별시,종로구,도시공원,서울특별시 종로구 금연환경조성 및 간접흡연 피해방지 조례,1117.6,100000,02-2148-3544,서울특별시 종로구 평창문화로 170,,서울특별시 종로구청,37.61078353,126.9781414,2021-07-12
후창소공원,공원면적 전체,서울특별시,종로구,도시공원,서울특별시 종로구 금연환경조성 및 간접흡연 피해방지 조례,1920,100000,02-2148-3544,서울특별시 종로구 평창길 82,,서울특별시 종로구청,37.6098864,126.9643697,2021-07-12
우정총국,광장면적 전체,서울특별시,종로구,광장,서울특별시 종로구 금연환경조성 및 간접흡연 피해방지 조례,640,100000,02-2148-3544,서울특별시 종로구 우정국로 59,,서울특별시 종로구청,37.57442745,126.9826167,2021-07-12
도렴녹지,녹지면적 전체,서울특별시,종로구,녹지,서울특별시 종로구 금연환경조성 및 간접흡연 피해방지 조례,867,100000,02-2148-3544,서울특별시 종로구새문안로3길 30,,서울특별시 종로구청,37.57273544,126.9732804,2021-07-12
사직동 완충녹지,녹지면적 전체,서울특별시,종로구,녹지,서울특별시 종로구 금연환경조성 및 간접흡연 피해방지 조례,3917.3,100000,02-2148-3544,서울특별시 종로구 사직로8길 4,,서울특별시 종로구청,37.5746552,126.968575,2021-07-12
쌈지공원,마을마당면적 전체,서울특별시,종로구,마을마당,서울특별시 종로구 금연환경조성 및 간접흡연 피해방지 조례,919,100000,02-2148-3544,서울특별시 종로구 낙산5길 67,,서울특별시 종로구청,37.577505,127.0120316,2021-07-12
경복궁역,지하철역 출입구로부터 10m 이내,서울특별시,종로구,지하철역,서울특별시 간접흡연 피해방지 조례,,100000,02-2148-3544,서울특별시 종로구 사직로 130,,서울특별시 종로구청,37.57536635,126.9733202,2021-07-12
광화문역,지하철역 출입구로부터 10m 이내,서울특별시,종로구,지하철역,서울특별시 간접흡연 피해방지 조례,,100000,02-2148-3544,서울특별시 종로구 세종대로 지하 172,,서울특별시 종로구청,37.57162255,126.9767899,2021-07-12
독립문역,지하철역 출입구로부터 10m 이내,서울특별시,종로구,지하철역,서울특별시 간접흡연 피해방지 조례,,100000,02-2148-3544,서울특별시 종로구 통일로 252,,서울특별시 종로구청,37.57483205,126.9578343,2021-07-12
동대문역,지하철역 출입구로부터 10m 이내,서울특별시,종로구,지하철역,서울특별시 간접흡연 피해방지 조례,,100000,02-2148-3544,서울특별시 종로구 종로 302,,서울특별시 종로구청,37.5716351,127.0114013,2021-07-12
동묘앞역,지하철역 출입구로부터 10m 이내,서울특별시,종로구,지하철역,서울특별시 간접흡연 피해방지 조례,,100000,02-2148-3544,서울특별시 종로구 종로 359,,서울특별시 종로구청,37.573345,127.0167491,2021-07-12
서대문역,지하철역 출입구로부터 10m 이내,서울특별시,종로구,지하철역,서울특별시 간접흡연 피해방지 조례,,100000,02-2148-3544,서울특별시 종로구 통일로 지하 126,,서울특별시 종로구청,37.5658574,126.9666364,2021-07-12
신설동역,지하철역 출입구로부터 10m 이내,서울특별시,종로구,지하철역,서울특별시 간접흡연 피해방지 조례,,100000,02-2148-3544,서울특별시 종로구 보문로 3,,서울특별시 종로구청,37.57608795,127.0228628,2021-07-12
안국역,지하철역 출입구로부터 10m 이내,서울특별시,종로구,지하철역,서울특별시 간접흡연 피해방지 조례,,100000,02-2148-3544,서울특별시 종로구 율곡로 지하 62,,서울특별시 종로구청,37.57672001,126.9858221,2021-07-12
종각역,지하철역 출입구로부터 10m 이내,서울특별시,종로구,지하철역,서울특별시 간접흡연 피해방지 조례,,100000,02-2148-3544,서울특별시 종로구 종로 지하 55,,서울특별시 종로구청,37.57021449,126.983209,2021-07-12
종로3가역,지하철역 출입구로부터 10m 이내,서울특별시,종로구,지하철역,서울특별시 간접흡연 피해방지 조례,,100000,02-2148-3544,서울특별시 종로구 종로 지하 129,,서울특별시 종로구청,37.570491,126.992031,2021-07-12
종로5가역,지하철역 출입구로부터 10m 이내,서울특별시,종로구,지하철역,서울특별시 간접흡연 피해방지 조례,,100000,02-2148-3544,서울특별시 종로구 종로 지하 216,,서울특별시 종로구청,37.57090763,127.0019153,2021-07-12
창신역,지하철역 출입구로부터 10m 이내,서울특별시,종로구,지하철역,서울특별시 간접흡연 피해방지 조례,,100000,02-2148-3544,서울특별시 종로구 지봉로 104,,서울특별시 종로구청,37.57943003,127.0155595,2021-07-12
혜화역,지하철역 출입구로부터 10m 이내,서울특별시,종로구,지하철역,서울특별시 간접흡연 피해방지 조례,,100000,02-2148-3544,서울특별시 종로구 대학로 120,,서울특별시 종로구청,37.58187452,127.0022914,2021-07-12
상명대학교사범대학부속초등학교,학교출입문으로부터 직선거리 50m이내,서울특별시,종로구,학교절대정화구역,서울특별시 종로구 금연환경조성 및 간접흡연 피해방지 조례,,100000,02-2148-3544,서울특별시 종로구 홍지문2길 1 (홍지동),,서울특별시 종로구청,37.60044146,126.9567146,2021-07-12
서울교동초등학교,학교출입문으로부터 직선거리 50m이내,서울특별시,종로구,학교절대정화구역,서울특별시 종로구 금연환경조성 및 간접흡연 피해방지 조례,,100000,02-2148-3544,서울특별시 종로구 삼일대로 446 (경운동),,서울특별시 종로구청,37.57500477,126.9881499,2021-07-12
서울대학교사범대학부설초등학교,학교출입문으로부터 직선거리 50m이내,서울특별시,종로구,학교절대정화구역,서울특별시 종로구 금연환경조성 및 간접흡연 피해방지 조례,,100000,02-2148-3544,서울특별시 종로구 대학로 64 (이화동),,서울특별시 종로구청,37.5775997,127.0042973,2021-07-12
서울독립문초등학교,학교출입문으로부터 직선거리 50m이내,서울특별시,종로구,학교절대정화구역,서울특별시 종로구 금연환경조성 및 간접흡연 피해방지 조례,,100000,02-2148-3544,서울특별시 종로구 통일로12길 23 (무악동 ),,서울특별시 종로구청,37.57421652,126.9599719,2021-07-12
서울매동초등학교,학교출입문으로부터 직선거리 50m이내,서울특별시,종로구,학교절대정화구역,서울특별시 종로구 금연환경조성 및 간접흡연 피해방지 조례,,100000,02-2148-3544,서울특별시 종로구 사직로9길 19 (필운동 ),,서울특별시 종로구청,37.5774983,126.9669436,2021-07-12
서울명신초등학교,학교출입문으로부터 직선거리 50m이내,서울특별시,종로구,학교절대정화구역,서울특별시 종로구 금연환경조성 및 간접흡연 피해방지 조례,,100000,02-2148-3544,서울특별시 종로구 낙산길 250 (창신동 ),,서울특별시 종로구청,37.58145198,127.0146226,2021-07-12
서울세검정초등학교,학교출입문으로부터 직선거리 50m이내,서울특별시,종로구,학교절대정화구역,서울특별시 종로구 금연환경조성 및 간접흡연 피해방지 조례,,100000,02-2148-3544,서울특별시 종로구 세검정로9길 1 (신영동 ),,서울특별시 종로구청,37.60347028,126.9609709,2021-07-12
서울재동초등학교,학교출입문으로부터 직선거리 50m이내,서울특별시,종로구,학교절대정화구역,서울특별시 종로구 금연환경조성 및 간접흡연 피해방지 조례,,100000,02-2148-3544,서울특별시 종로구 북촌로4길 7 (가회동 ),,서울특별시 종로구청,37.58002838,126.9851785,2021-07-12
서울창신초등학교,학교출입문으로부터 직선거리 50m이내,서울특별시,종로구,학교절대정화구역,서울특별시 종로구 금연환경조성 및 간접흡연 피해방지 조례,,100000,02-2148-3544,서울특별시 종로구 지봉로 73 (창신동 ),,서울특별시 종로구청,37.57621184,127.0142955,2021-07-12
서울청운초등학교,학교출입문으로부터 직선거리 50m이내,서울특별시,종로구,학교절대정화구역,서울특별시 종로구 금연환경조성 및 간접흡연 피해방지 조례,,100000,02-2148-3544,서울특별시 종로구 자하문로 105 (청운동 ),,서울특별시 종로구청,37.5859214,126.969236,2021-07-12
서울혜화초등학교,학교출입문으로부터 직선거리 50m이내,서울특별시,종로구,학교절대정화구역,서울특별시 종로구 금연환경조성 및 간접흡연 피해방지 조례,,100000,02-2148-3544,서울특별시 종로구 혜화로 32 (혜화동 ),,서울특별시 종로구청,37.5886356,127.0002536,2021-07-12
서울효제초등학교,학교출입문으로부터 직선거리 50m이내,서울특별시,종로구,학교절대정화구역,서울특별시 종로구 금연환경조성 및 간접흡연 피해방지 조례,,100000,02-2148-3544,서울특별시 종로구 대학로 12 (효제동 ),,서울특별시 종로구청,37.57268796,127.0034911,2021-07-12
운현초등학교,학교출입문으로부터 직선거리 50m이내,서울특별시,종로구,학교절대정화구역,서울특별시 종로구 금연환경조성 및 간접흡연 피해방지 조례,,100000,02-2148-3544,서울특별시 종로구 삼일대로 460 (운니동 ),,서울특별시 종로구청,37.57663053,126.9881575,2021-07-12
경신중학교,학교출입문으로부터 직선거리 50m이내,서울특별시,종로구,학교절대정화구역,서울특별시 종로구 금연환경조성 및 간접흡연 피해방지 조례,,100000,02-2148-3544,서울특별시 종로구 혜화로 74 (혜화동 ),,서울특별시 종로구청,37.59220353,126.999529,2021-07-12
대신중학교,학교출입문으로부터 직선거리 50m이내,서울특별시,종로구,학교절대정화구역,서울특별시 종로구 금연환경조성 및 간접흡연 피해방지 조례,,100000,02-2148-3544,서울특별시 종로구 사직로 9 (행촌동 ),,서울특별시 종로구청,37.57312494,126.9612539,2021-07-12
덕성여자중학교,학교출입문으로부터 직선거리 50m이내,서울특별시,종로구,학교절대정화구역,서울특별시 종로구 금연환경조성 및 간접흡연 피해방지 조례,,100000,02-2148-3544,서울특별시 종로구 율곡로3길 49 (송현동 ),,서울특별시 종로구청,37.577766,126.981981,2021-07-12
동성중학교,학교출입문으로부터 직선거리 50m이내,서울특별시,종로구,학교절대정화구역,서울특별시 종로구 금연환경조성 및 간접흡연 피해방지 조례,,100000,02-2148-3544,서울특별시 종로구 대학로 156 (혜화동 ),,서울특별시 종로구청,37.58497032,127.0030976,2021-07-12
배화여자중학교,학교출입문으로부터 직선거리 50m이내,서울특별시,종로구,학교절대정화구역,서울특별시 종로구 금연환경조성 및 간접흡연 피해방지 조례,,100000,02-2148-3544,서울특별시 종로구 필운대로1길 34 (필운동 ),,서울특별시 종로구청,37.57954401,126.9672919,2021-07-12
상명대학교사범대학부속여자중학교,학교출입문으로부터 직선거리 50m이내,서울특별시,종로구,학교절대정화구역,서울특별시 종로구 금연환경조성 및 간접흡연 피해방지 조례,,100000,02-2148-3544,서울특별시 종로구 홍지문2길 20 (홍지동),,서울특별시 종로구청,37.6041771,126.9551587,2021-07-12
서울대학교사범대학부설여자중학교,학교출입문으로부터 직선거리 50m이내,서울특별시,종로구,학교절대정화구역,서울특별시 종로구 금연환경조성 및 간접흡연 피해방지 조례,,100000,02-2148-3544,서울특별시 종로구 대학로 64,,서울특별시 종로구청,37.5775997,127.0042973,2021-07-12
중앙중학교,학교출입문으로부터 직선거리 50m이내,서울특별시,종로구,학교절대정화구역,서울특별시 종로구 금연환경조성 및 간접흡연 피해방지 조례,,100000,02-2148-3544,서울특별시 종로구 창덕궁길 164 (계동 ),,서울특별시 종로구청,37.58378759,126.9874738,2021-07-12
청운중학교,학교출입문으로부터 직선거리 50m이내,서울특별시,종로구,학교절대정화구역,서울특별시 종로구 금연환경조성 및 간접흡연 피해방지 조례,,100000,02-2148-3544,서울특별시 종로구 창의문로 51 (청운동 ),,서울특별시 종로구청,37.58917265,126.971002,2021-07-12
경기상업고등학교,학교출입문으로부터 직선거리 50m이내,서울특별시,종로구,학교절대정화구역,서울특별시 종로구 금연환경조성 및 간접흡연 피해방지 조례,,100000,02-2148-3544,서울특별시 종로구 자하문로 136 (청운동 ),,서울특별시 종로구청,37.58925889,126.9700589,2021-07-12
경복고등학교,학교출입문으로부터 직선거리 50m이내,서울특별시,종로구,학교절대정화구역,서울특별시 종로구 금연환경조성 및 간접흡연 피해방지 조례,,100000,02-2148-3544,서울특별시 종로구 자하문로28가길 9 (청운동 ),,서울특별시 종로구청,37.5859472,126.9715094,2021-07-12
경신고등학교,학교출입문으로부터 직선거리 50m이내,서울특별시,종로구,학교절대정화구역,서울특별시 종로구 금연환경조성 및 간접흡연 피해방지 조례,,100000,02-2148-3544,서울특별시 종로구 혜화로 74 (혜화동 ),,서울특별시 종로구청,37.592207,126.999529,2021-07-12
대동세무고등학교,학교출입문으로부터 직선거리 50m이내,서울특별시,종로구,학교절대정화구역,서울특별시 종로구 금연환경조성 및 간접흡연 피해방지 조례,,100000,02-2148-3544,서울특별시 종로구 계동길 84-10 (계동 ),,서울특별시 종로구청,37.58158201,126.9879496,2021-07-12
대신고등학교,학교출입문으로부터 직선거리 50m이내,서울특별시,종로구,학교절대정화구역,서울특별시 종로구 금연환경조성 및 간접흡연 피해방지 조례,,100000,02-2148-3544,서울특별시 종로구 사직로 9 (행촌동 ),,서울특별시 종로구청,37.57312494,126.9612539,2021-07-12
덕성여자고등학교,학교출입문으로부터 직선거리 50m이내,서울특별시,종로구,학교절대정화구역,서울특별시 종로구 금연환경조성 및 간접흡연 피해방지 조례,,100000,02-2148-3544,서울특별시 종로구 율곡로3길 50 (안국동 ),,서울특별시 종로구청,37.57776127,126.9835578,2021-07-12
동성고등학교,학교출입문으로부터 직선거리 50m이내,서울특별시,종로구,학교절대정화구역,서울특별시 종로구 금연환경조성 및 간접흡연 피해방지 조례,,100000,02-2148-3544,서울특별시 종로구 대학로 156 (혜화동 ),,서울특별시 종로구청,37.58497032,127.0030976,2021-07-12
배화여자고등학교,학교출입문으로부터 직선거리 50m이내,서울특별시,종로구,학교절대정화구역,서울특별시 종로구 금연환경조성 및 간접흡연 피해방지 조례,,100000,02-2148-3544,서울특별시 종로구 필운대로1길 34 (필운동 ),,서울특별시 종로구청,37.57954401,126.9672919,2021-07-12
상명대학교사범대학부속여자고등학교,학교출입문으로부터 직선거리 50m이내,서울특별시,종로구,학교절대정화구역,서울특별시 종로구 금연환경조성 및 간접흡연 피해방지 조례,,100000,02-2148-3544,서울특별시 종로구 홍지문2길 20 (홍지동),,서울특별시 종로구청,37.60410972,126.9551587,2021-07-12
서울경운학교,학교출입문으로부터 직선거리 50m이내,서울특별시,종로구,학교절대정화구역,서울특별시 종로구 금연환경조성 및 간접흡연 피해방지 조례,,100000,02-2148-3544,서울특별시 종로구 삼일대로 454 (경운동 ),,서울특별시 종로구청,37.57506236,126.987496,2021-07-12
서울과학고등학교,학교출입문으로부터 직선거리 50m이내,서울특별시,종로구,학교절대정화구역,서울특별시 종로구 금연환경조성 및 간접흡연 피해방지 조례,,100000,02-2148-3544,서울특별시 종로구 혜화로 63 (명륜1가 ),,서울특별시 종로구청,37.591537,126.9984375,2021-07-12
서울국제고등학교,학교출입문으로부터 직선거리 50m이내,서울특별시,종로구,학교절대정화구역,서울특별시 종로구 금연환경조성 및 간접흡연 피해방지 조례,,100000,02-2148-3544,서울특별시 종로구 성균관로13길 40 (명륜1가 ),,서울특별시 종로구청,37.59179259,126.995489,2021-07-12
서울농학교,학교출입문으로부터 직선거리 50m이내,서울특별시,종로구,학교절대정화구역,서울특별시 종로구 금연환경조성 및 간접흡연 피해방지 조례,,100000,02-2148-3544,서울특별시 종로구 필운대로 103 (신교동 ),,서울특별시 종로구청,37.58564378,126.9687742,2021-07-12
서울다솜관광고등학교,학교출입문으로부터 직선거리 50m이내,서울특별시,종로구,학교절대정화구역,서울특별시 종로구 금연환경조성 및 간접흡연 피해방지 조례,,100000,02-2148-3544,서울특별시 종로구 종로58길 30,,서울특별시 종로구청,37.57211009,127.0174145,2021-07-12
서울맹학교,학교출입문으로부터 직선거리 50m이내,서울특별시,종로구,학교절대정화구역,서울특별시 종로구 금연환경조성 및 간접흡연 피해방지 조례,,100000,02-2148-3544,서울특별시 종로구 필운대로 97 (신교동 ),,서울특별시 종로구청,37.58477134,126.9677601,2021-07-12
서울예술고등학교,학교출입문으로부터 직선거리 50m이내,서울특별시,종로구,학교절대정화구역,서울특별시 종로구 금연환경조성 및 간접흡연 피해방지 조례,,100000,02-2148-3544,서울특별시 종로구 평창문화로 70 (평창동 ),,서울특별시 종로구청,37.60575727,126.9678915,2021-07-12
서일국제경영고등학교,학교출입문으로부터 직선거리 50m이내,서울특별시,종로구,학교절대정화구역,서울특별시 종로구 금연환경조성 및 간접흡연 피해방지 조례,,100000,02-2148-3544,서울특별시 종로구 지봉로17길 49 (창신동 ),,서울특별시 종로구청,37.579352,127.012765,2021-07-12
수도사랑의학교,학교출입문으로부터 직선거리 50m이내,서울특별시,종로구,학교절대정화구역,서울특별시 종로구 금연환경조성 및 간접흡연 피해방지 조례,,100000,02-2148-3544,서울특별시 종로구 사직로7길 17 (사직동 ),,서울특별시 종로구청,37.574732,126.965217,2021-07-12
종로산업정보학교,학교출입문으로부터 직선거리 50m이내,서울특별시,종로구,학교절대정화구역,서울특별시 종로구 금연환경조성 및 간접흡연 피해방지 조례,,100000,02-2148-3544,서울특별시 종로구 종로58길 28 (숭인동 ),,서울특별시 종로구청,37.57257143,127.0171882,2021-07-12
중앙고등학교,학교출입문으로부터 직선거리 50m이내,서울특별시,종로구,학교절대정화구역,서울특별시 종로구 금연환경조성 및 간접흡연 피해방지 조례,,100000,02-2148-3544,서울특별시 종로구 창덕궁길 164 (계동 ),,서울특별시 종로구청,37.58378759,126.9874738,2021-07-12
하비에르국제학교,학교출입문으로부터 직선거리 50m이내,서울특별시,종로구,학교절대정화구역,서울특별시 종로구 금연환경조성 및 간접흡연 피해방지 조례,,100000,02-2148-3544,서울특별시 종로구 비봉길 23 (구기동 ),,서울특별시 종로구청,37.6107365,126.9563721,2021-07-12
린덴바움유치원,학교출입문으로부터 직선거리 50m이내,서울특별시,종로구,학교절대정화구역,서울특별시 종로구 금연환경조성 및 간접흡연 피해방지 조례,,100000,02-2148-3544,서울특별시 종로구 통일로12길 51,,서울특별시 종로구청,37.574769,126.9615745,2021-07-12
배화여자대학교 부속배화유치원,학교출입문으로부터 직선거리 50m이내,서울특별시,종로구,학교절대정화구역,서울특별시 종로구 금연환경조성 및 간접흡연 피해방지 조례,,100000,02-2148-3544,서울특별시 종로구 필운대로1길 34,,서울특별시 종로구청,37.57954401,126.9672919,2021-07-12
봄샘유치원,학교출입문으로부터 직선거리 50m이내,서울특별시,종로구,학교절대정화구역,서울특별시 종로구 금연환경조성 및 간접흡연 피해방지 조례,,100000,02-2148-3544,서울특별시 종로구 율곡로 264,,서울특별시 종로구청,37.57345547,127.006578,2021-07-12
상명사대 부속유치원,학교출입문으로부터 직선거리 50m이내,서울특별시,종로구,학교절대정화구역,서울특별시 종로구 금연환경조성 및 간접흡연 피해방지 조례,,100000,02-2148-3544,서울특별시 종로구 홍지문2길 20,,서울특별시 종로구청,37.60410972,126.9551587,2021-07-12
서울명신초등학교 병설유치원,학교출입문으로부터 직선거리 50m이내,서울특별시,종로구,학교절대정화구역,서울특별시 종로구 금연환경조성 및 간접흡연 피해방지 조례,,100000,02-2148-3544,서울특별시 종로구 낙산길 250,,서울특별시 종로구청,37.58145198,127.0146226,2021-07-12
서울재동초등학교 병설유치원,학교출입문으로부터 직선거리 50m이내,서울특별시,종로구,학교절대정화구역,서울특별시 종로구 금연환경조성 및 간접흡연 피해방지 조례,,100000,02-2148-3544,서울특별시 종로구 북촌로4길 7,,서울특별시 종로구청,37.58002838,126.9851785,2021-07-12
서울창신초등학교 병설유치원,학교출입문으로부터 직선거리 50m이내,서울특별시,종로구,학교절대정화구역,서울특별시 종로구 금연환경조성 및 간접흡연 피해방지 조례,,100000,02-2148-3544,서울특별시 종로구 지봉로 73,,서울특별시 종로구청,37.57621184,127.0142955,2021-07-12
서울혜화초등학교 병설유치원,학교출입문으로부터 직선거리 50m이내,서울특별시,종로구,학교절대정화구역,서울특별시 종로구 금연환경조성 및 간접흡연 피해방지 조례,,100000,02-2148-3544,서울특별시 종로구 혜화로 32,,서울특별시 종로구청,37.5886356,127.0002536,2021-07-12
세검정유치원,학교출입문으로부터 직선거리 50m이내,서울특별시,종로구,학교절대정화구역,서울특별시 종로구 금연환경조성 및 간접흡연 피해방지 조례,,100000,02-2148-3544,서울특별시 종로구 자하문로 310,,서울특별시 종로구청,37.60027312,126.9596544,2021-07-12
세종유치원,학교출입문으로부터 직선거리 50m이내,서울특별시,종로구,학교절대정화구역,서울특별시 종로구 금연환경조성 및 간접흡연 피해방지 조례,,100000,02-2148-3544,서울특별시 종로구 사직로8길 9,,서울특별시 종로구청,37.575477,126.9700192,2021-07-12
연동유치원,학교출입문으로부터 직선거리 50m이내,서울특별시,종로구,학교절대정화구역,서울특별시 종로구 금연환경조성 및 간접흡연 피해방지 조례,,100000,02-2148-3544,서울특별시 종로구 대학로3길 9,,서울특별시 종로구청,37.573998,127.0013448,2021-07-12
옥인유치원,학교출입문으로부터 직선거리 50m이내,서울특별시,종로구,학교절대정화구역,서울특별시 종로구 금연환경조성 및 간접흡연 피해방지 조례,,100000,02-2148-3544,서울특별시 종로구 자하문로 69,,서울특별시 종로구청,37.58222041,126.9703425,2021-07-12
운현유치원,학교출입문으로부터 직선거리 50m이내,서울특별시,종로구,학교절대정화구역,서울특별시 종로구 금연환경조성 및 간접흡연 피해방지 조례,,100000,02-2148-3544,서울특별시 종로구 삼일대로 460,,서울특별시 종로구청,37.57663053,126.9881575,2021-07-12
청룡유치원,학교출입문으로부터 직선거리 50m이내,서울특별시,종로구,학교절대정화구역,서울특별시 종로구 금연환경조성 및 간접흡연 피해방지 조례,,100000,02-2148-3544,서울특별시 종로구 동망산길 62,,서울특별시 종로구청,37.57941186,127.016632,2021-07-12
하나유치원,학교출입문으로부터 직선거리 50m이내,서울특별시,종로구,학교절대정화구역,서울특별시 종로구 금연환경조성 및 간접흡연 피해방지 조례,,100000,02-2148-3544,서울특별시 종로구 평창길 317,,서울특별시 종로구청,37.614321,126.9775015,2021-07-12
한아름유치원,학교출입문으로부터 직선거리 50m이내,서울특별시,종로구,학교절대정화구역,서울특별시 종로구 금연환경조성 및 간접흡연 피해방지 조례,,100000,02-2148-3544,서울특별시 종로구 혜화로6길 80,,서울특별시 종로구청,37.590282,127.0011232,2021-07-12
혜화유치원,학교출입문으로부터 직선거리 50m이내,서울특별시,종로구,학교절대정화구역,서울특별시 종로구 금연환경조성 및 간접흡연 피해방지 조례,,100000,02-2148-3544,서울특별시 종로구 창경궁로 296,,서울특별시 종로구청,37.586813,127.003105,2021-07-12
GS건설 꿈과희망어린이집,어린이집출입문으로부터 10m이내,서울특별시,종로구,어린이집출입문,서울특별시 종로구 금연환경조성 및 간접흡연 피해방지 조례,,100000,02-2148-3544,서울특별시 종로구 종로5길 31,,서울특별시 종로구청,37.5716522,126.980383,2021-07-12
kids-sure어린이집,어린이집출입문으로부터 10m이내,서울특별시,종로구,어린이집출입문,서울특별시 종로구 금연환경조성 및 간접흡연 피해방지 조례,,100000,02-2148-3544,서울특별시 종로구 종로 14,,서울특별시 종로구청,37.56981374,126.978839,2021-07-12
KIM&CHANG어린이집,어린이집출입문으로부터 10m이내,서울특별시,종로구,어린이집출입문,서울특별시 종로구 금연환경조성 및 간접흡연 피해방지 조례,,100000,02-2148-3544,서울특별시 종로구 경희궁길 26,,서울특별시 종로구청,37.572268,126.9709894,2021-07-12
ktis꿈나무어린이집,어린이집출입문으로부터 10m이내,서울특별시,종로구,어린이집출입문,서울특별시 종로구 금연환경조성 및 간접흡연 피해방지 조례,,100000,02-2148-3544,서울특별시 종로구 종로 390,,서울특별시 종로구청,37.57421786,127.020831,2021-07-12
KT혜화어린이집,어린이집출입문으로부터 10m이내,서울특별시,종로구,어린이집출입문,서울특별시 종로구 금연환경조성 및 간접흡연 피해방지 조례,,100000,02-2148-3544,서울특별시 종로구 대학로 65,,서울특별시 종로구청,37.57715333,127.0015487,2021-07-12
LG광화문어린이집,어린이집출입문으로부터 10m이내,서울특별시,종로구,어린이집출입문,서울특별시 종로구 금연환경조성 및 간접흡연 피해방지 조례,,100000,02-2148-3544,서울특별시 종로구 새문안로 58,,서울특별시 종로구청,37.56927522,126.9715792,2021-07-12
SC으뜸별어린이집,어린이집출입문으로부터 10m이내,서울특별시,종로구,어린이집출입문,서울특별시 종로구 금연환경조성 및 간접흡연 피해방지 조례,,100000,02-2148-3544,서울특별시 종로구 종로 47,,서울특별시 종로구청,37.57112618,126.9824409,2021-07-12
SGI서울보증어린이집,어린이집출입문으로부터 10m이내,서울특별시,종로구,어린이집출입문,서울특별시 종로구 금연환경조성 및 간접흡연 피해방지 조례,,100000,02-2148-3544,서울특별시 종로구 김상옥로 29,,서울특별시 종로구청,37.5736208,127.0006022,2021-07-12
SK건설행복날개어린이집,어린이집출입문으로부터 10m이내,서울특별시,종로구,어린이집출입문,서울특별시 종로구 금연환경조성 및 간접흡연 피해방지 조례,,100000,02-2148-3544,서울특별시 종로구 인사동7길 32,,서울특별시 종로구청,37.573022,126.984306,2021-07-12
SK행복어린이집,어린이집출입문으로부터 10m이내,서울특별시,종로구,어린이집출입문,서울특별시 종로구 금연환경조성 및 간접흡연 피해방지 조례,,100000,02-2148-3544,서울특별시 종로구 종로 26,,서울특별시 종로구청,37.569651,126.9803041,2021-07-12
가람어린이집,어린이집출입문으로부터 10m이내,서울특별시,종로구,어린이집출입문,서울특별시 종로구 금연환경조성 및 간접흡연 피해방지 조례,,100000,02-2148-3544,서울특별시 종로구 통일로 246-20,,서울특별시 종로구청,37.57693096,126.961913,2021-07-12
가회어린이집,어린이집출입문으로부터 10m이내,서울특별시,종로구,어린이집출입문,서울특별시 종로구 금연환경조성 및 간접흡연 피해방지 조례,,100000,02-2148-3544,서울특별시 종로구 북촌로12길 12-2,,서울특별시 종로구청,37.581822,126.985874,2021-07-12
교보생명다솜이어린이집,어린이집출입문으로부터 10m이내,서울특별시,종로구,어린이집출입문,서울특별시 종로구 금연환경조성 및 간접흡연 피해방지 조례,,100000,02-2148-3544,서울특별시 종로구 경희궁1가길 3,,서울특별시 종로구청,37.572019,126.969355,2021-07-12
구기어린이집,어린이집출입문으로부터 10m이내,서울특별시,종로구,어린이집출입문,서울특별시 종로구 금연환경조성 및 간접흡연 피해방지 조례,,100000,02-2148-3544,서울특별시 종로구 진흥로22길 8-1,,서울특별시 종로구청,37.60668049,126.9582999,2021-07-12
구민회관어린이집,어린이집출입문으로부터 10m이내,서울특별시,종로구,어린이집출입문,서울특별시 종로구 금연환경조성 및 간접흡연 피해방지 조례,,100000,02-2148-3544,서울특별시 종로구 지봉로5길 7-5,,서울특별시 종로구청,37.57350163,127.0143719,2021-07-12
낙산어린이집,어린이집출입문으로부터 10m이내,서울특별시,종로구,어린이집출입문,서울특별시 종로구 금연환경조성 및 간접흡연 피해방지 조례,,100000,02-2148-3544,서울특별시 종로구 창신길 210-11,,서울특별시 종로구청,37.57954594,127.010195,2021-07-12
노틀담어린이집,어린이집출입문으로부터 10m이내,서울특별시,종로구,어린이집출입문,서울특별시 종로구 금연환경조성 및 간접흡연 피해방지 조례,,100000,02-2148-3544,서울특별시 종로구 북촌로 54,,서울특별시 종로구청,37.581497,126.9854408,2021-07-12
누상어린이집,어린이집출입문으로부터 10m이내,서울특별시,종로구,어린이집출입문,서울특별시 종로구 금연환경조성 및 간접흡연 피해방지 조례,,100000,02-2148-3544,서울특별시 종로구 옥인길 23-4,,서울특별시 종로구청,37.580747,126.967154,2021-07-12
다솔어린이집,어린이집출입문으로부터 10m이내,서울특별시,종로구,어린이집출입문,서울특별시 종로구 금연환경조성 및 간접흡연 피해방지 조례,,100000,02-2148-3544,서울특별시 종로구 통일로8길 16,,서울특별시 종로구청,37.56941411,126.9653217,2021-07-12
대학로어린이집,어린이집출입문으로부터 10m이내,서울특별시,종로구,어린이집출입문,서울특별시 종로구 금연환경조성 및 간접흡연 피해방지 조례,,100000,02-2148-3544,서울특별시 종로구 이화장길 86-22,,서울특별시 종로구청,37.579307,127.005461,2021-07-12
동숭어린이집,어린이집출입문으로부터 10m이내,서울특별시,종로구,어린이집출입문,서울특별시 종로구 금연환경조성 및 간접흡연 피해방지 조례,,100000,02-2148-3544,서울특별시 종로구 낙산4길 24,,서울특별시 종로구청,37.57914252,127.0070371,2021-07-12
동화속의아이들어린이집,어린이집출입문으로부터 10m이내,서울특별시,종로구,어린이집출입문,서울특별시 종로구 금연환경조성 및 간접흡연 피해방지 조례,,100000,02-2148-3544,서울특별시 종로구 통일로 246-11,,서울특별시 종로구청,37.5750956,126.9591246,2021-07-12
롯데백화점어린이집,어린이집출입문으로부터 10m이내,서울특별시,종로구,어린이집출입문,서울특별시 종로구 금연환경조성 및 간접흡연 피해방지 조례,,100000,02-2148-3544,서울특별시 종로구 북촌로5길 11,,서울특별시 종로구청,37.579254,126.9842367,2021-07-12
만나어린이집,어린이집출입문으로부터 10m이내,서울특별시,종로구,어린이집출입문,서울특별시 종로구 금연환경조성 및 간접흡연 피해방지 조례,,100000,02-2148-3544,서울특별시 종로구 혜화로14길 19,,서울특별시 종로구청,37.5901468,127.0005163,2021-07-12
창경어린이집,어린이집출입문으로부터 10m이내,서울특별시,종로구,어린이집출입문,서울특별시 종로구 금연환경조성 및 간접흡연 피해방지 조례,,100000,02-2148-3544,서울특별시 종로구 성균관로1길 6-3,,서울특별시 종로구청,37.5834055,126.997769,2021-07-12
명륜어린이집,어린이집출입문으로부터 10m이내,서울특별시,종로구,어린이집출입문,서울특별시 종로구 금연환경조성 및 간접흡연 피해방지 조례,,100000,02-2148-3544,서울특별시 종로구 성균관로13길 66,,서울특별시 종로구청,37.591329,126.9949844,2021-07-12
무궁화제1어린이집,어린이집출입문으로부터 10m이내,서울특별시,종로구,어린이집출입문,서울특별시 종로구 금연환경조성 및 간접흡연 피해방지 조례,,100000,02-2148-3544,서울특별시 종로구 자하문로28길 8,,서울특별시 종로구청,37.58479744,126.971141,2021-07-12
무궁화제2어린이집,어린이집출입문으로부터 10m이내,서울특별시,종로구,어린이집출입문,서울특별시 종로구 금연환경조성 및 간접흡연 피해방지 조례,,100000,02-2148-3544,서울특별시 종로구 자하문로26길 15-3,,서울특별시 종로구청,37.584718,126.971519,2021-07-12
무악어린이집,어린이집출입문으로부터 10m이내,서울특별시,종로구,어린이집출입문,서울특별시 종로구 금연환경조성 및 간접흡연 피해방지 조례,,100000,02-2148-3544,서울특별시 종로구 통일로 18길 64,,서울특별시 종로구청,37.5760518,126.9603603,2021-07-12
미래나무어린이집,어린이집출입문으로부터 10m이내,서울특별시,종로구,어린이집출입문,서울특별시 종로구 금연환경조성 및 간접흡연 피해방지 조례,,100000,02-2148-3544,서울특별시 종로구 종로33길 15,,서울특별시 종로구청,37.57181224,127.0010007,2021-07-12
부암어린이집,어린이집출입문으로부터 10m이내,서울특별시,종로구,어린이집출입문,서울특별시 종로구 금연환경조성 및 간접흡연 피해방지 조례,,100000,02-2148-3544,서울특별시 종로구 세검정로6다길 10-7,,서울특별시 종로구청,37.60156807,126.9631099,2021-07-12
사직어린이집,어린이집출입문으로부터 10m이내,서울특별시,종로구,어린이집출입문,서울특별시 종로구 금연환경조성 및 간접흡연 피해방지 조례,,100000,02-2148-3544,서울특별시 종로구 필운대로1길 16-8,,서울특별시 종로구청,37.57811506,126.9687049,2021-07-12
삼청어린이집,어린이집출입문으로부터 10m이내,서울특별시,종로구,어린이집출입문,서울특별시 종로구 금연환경조성 및 간접흡연 피해방지 조례,,100000,02-2148-3544,서울특별시 종로구 삼청로7길 26,,서울특별시 종로구청,37.58403171,126.9804815,2021-07-12
상록수어린이집,어린이집출입문으로부터 10m이내,서울특별시,종로구,어린이집출입문,서울특별시 종로구 금연환경조성 및 간접흡연 피해방지 조례,,100000,02-2148-3544,서울특별시 종로구 송월1길 73-7,,서울특별시 종로구청,37.57276199,126.9646048,2021-07-12
상명행복어린이집,어린이집출입문으로부터 10m이내,서울특별시,종로구,어린이집출입문,서울특별시 종로구 금연환경조성 및 간접흡연 피해방지 조례,,100000,02-2148-3544,서울특별시 종로구 홍지문2길 37 (홍지동),,서울특별시 종로구청,37.601006,126.9538288,2021-07-12
새문안어린이집,어린이집출입문으로부터 10m이내,서울특별시,종로구,어린이집출입문,서울특별시 종로구 금연환경조성 및 간접흡연 피해방지 조례,,100000,02-2148-3544,서울특별시 종로구 새문안로 3길 3,,서울특별시 종로구청,37.57065574,126.9723937,2021-07-12
서울경찰청어린이집,어린이집출입문으로부터 10m이내,서울특별시,종로구,어린이집출입문,서울특별시 종로구 금연환경조성 및 간접흡연 피해방지 조례,,100000,02-2148-3544,서울특별시 종로구 사직로8길 31,,서울특별시 종로구청,37.574835,126.9719846,2021-07-12
서울대병원어린이집,어린이집출입문으로부터 10m이내,서울특별시,종로구,어린이집출입문,서울특별시 종로구 금연환경조성 및 간접흡연 피해방지 조례,,100000,02-2148-3544,서울특별시 종로구 동숭3길 40,,서울특별시 종로구청,37.582857,127.0048184,2021-07-12
서울청사푸르미어린이집,어린이집출입문으로부터 10m이내,서울특별시,종로구,어린이집출입문,서울특별시 종로구 금연환경조성 및 간접흡연 피해방지 조례,,100000,02-2148-3544,서울특별시 종로구 세종대로 209,,서울특별시 종로구청,37.57490906,126.9752086,2021-07-12
서울청사한빛어린이집,어린이집출입문으로부터 10m이내,서울특별시,종로구,어린이집출입문,서울특별시 종로구 금연환경조성 및 간접흡연 피해방지 조례,,100000,02-2148-3544,서울특별시 종로구 효자로 39,,서울특별시 종로구청,37.57990371,126.973185,2021-07-12
서울청사햇살어린이집,어린이집출입문으로부터 10m이내,서울특별시,종로구,어린이집출입문,서울특별시 종로구 금연환경조성 및 간접흡연 피해방지 조례,,100000,02-2148-3544,서울특별시 종로구 세종대로 209,,서울특별시 종로구청,37.57490906,126.9752082,2021-07-12
성터어린이집,어린이집출입문으로부터 10m이내,서울특별시,종로구,어린이집출입문,서울특별시 종로구 금연환경조성 및 간접흡연 피해방지 조례,,100000,02-2148-3544,서울특별시 종로구 창신4가길 40,,서울특별시 종로구청,37.5748242,127.0094411,2021-07-12
세종마을어린이집,어린이집출입문으로부터 10m이내,서울특별시,종로구,어린이집출입문,서울특별시 종로구 금연환경조성 및 간접흡연 피해방지 조례,,100000,02-2148-3544,서울특별시 종로구 옥인길 89,,서울특별시 종로구청,37.581918,126.963947,2021-07-12
숭인어린이집,어린이집출입문으로부터 10m이내,서울특별시,종로구,어린이집출입문,서울특별시 종로구 금연환경조성 및 간접흡연 피해방지 조례,,100000,02-2148-3544,서울특별시 종로구 지봉로 86,,서울특별시 종로구청,37.57782264,127.0156271,2021-07-12
숭일어린이집,어린이집출입문으로부터 10m이내,서울특별시,종로구,어린이집출입문,서울특별시 종로구 금연환경조성 및 간접흡연 피해방지 조례,,100000,02-2148-3544,서울특별시 종로구 종로 381-1,,서울특별시 종로구청,37.57451001,127.019524,2021-07-12
아동회관어린이집,어린이집출입문으로부터 10m이내,서울특별시,종로구,어린이집출입문,서울특별시 종로구 금연환경조성 및 간접흡연 피해방지 조례,,100000,02-2148-3544,서울특별시 종로구 지봉로13길 14,,서울특별시 종로구청,37.57894723,127.0144681,2021-07-12
아이누리어린이집,어린이집출입문으로부터 10m이내,서울특별시,종로구,어린이집출입문,서울특별시 종로구 금연환경조성 및 간접흡연 피해방지 조례,,100000,02-2148-3544,서울특별시 종로구 사직로8길 20,,서울특별시 종로구청,37.57393132,126.9705903,2021-07-12
아이소리어린이집,어린이집출입문으로부터 10m이내,서울특별시,종로구,어린이집출입문,서울특별시 종로구 금연환경조성 및 간접흡연 피해방지 조례,,100000,02-2148-3544,서울특별시 종로구 지봉로5길 7,,서울특별시 종로구청,37.57407833,127.0138332,2021-07-12
안동어린이집,어린이집출입문으로부터 10m이내,서울특별시,종로구,어린이집출입문,서울특별시 종로구 금연환경조성 및 간접흡연 피해방지 조례,,100000,02-2148-3544,서울특별시 종로구 북촌로7길 3-10,,서울특별시 종로구청,37.57994539,126.984411,2021-07-12
엄마품어린이집,어린이집출입문으로부터 10m이내,서울특별시,종로구,어린이집출입문,서울특별시 종로구 금연환경조성 및 간접흡연 피해방지 조례,,100000,02-2148-3544,서울특별시 종로구 평창문화로 172,,서울특별시 종로구청,37.610798,126.9784132,2021-07-12
엔젤키즈어린이집,어린이집출입문으로부터 10m이내,서울특별시,종로구,어린이집출입문,서울특별시 종로구 금연환경조성 및 간접흡연 피해방지 조례,,100000,02-2148-3544,서울특별시 종로구 자하문로43길 4-13,,서울특별시 종로구청,37.59856153,126.9605069,2021-07-12
연동어린이집,어린이집출입문으로부터 10m이내,서울특별시,종로구,어린이집출입문,서울특별시 종로구 금연환경조성 및 간접흡연 피해방지 조례,,100000,02-2148-3544,서울특별시 종로구 대학로3길 9,,서울특별시 종로구청,37.57398543,127.001306,2021-07-12
영희어린이집,어린이집출입문으로부터 10m이내,서울특별시,종로구,어린이집출입문,서울특별시 종로구 금연환경조성 및 간접흡연 피해방지 조례,,100000,02-2148-3544,서울특별시 종로구 혜화로2길 12-6,,서울특별시 종로구청,37.586474,127.0010914,2021-07-12
운현어린이집,어린이집출입문으로부터 10m이내,서울특별시,종로구,어린이집출입문,서울특별시 종로구 금연환경조성 및 간접흡연 피해방지 조례,,100000,02-2148-3544,서울특별시 종로구 삼일대로32길 31-8,,서울특별시 종로구청,37.57568598,126.988721,2021-07-12
은행나무어린이집,어린이집출입문으로부터 10m이내,서울특별시,종로구,어린이집출입문,서울특별시 종로구 금연환경조성 및 간접흡연 피해방지 조례,,100000,02-2148-3544,서울특별시 종로구 낙산5길 33,,서울특별시 종로구청,37.5787566,127.010942,2021-07-12
이화어린이집,어린이집출입문으로부터 10m이내,서울특별시,종로구,어린이집출입문,서울특별시 종로구 금연환경조성 및 간접흡연 피해방지 조례,,100000,02-2148-3544,서울특별시 종로구 율곡로20길 3,,서울특별시 종로구청,37.574901,127.0051274,2021-07-12
인왕어린이집,어린이집출입문으로부터 10m이내,서울특별시,종로구,어린이집출입문,서울특별시 종로구 금연환경조성 및 간접흡연 피해방지 조례,,100000,02-2148-3544,서울특별시 종로구 통일로18길 9,,서울특별시 종로구청,37.57767108,126.9553557,2021-07-12
조은어린이집,어린이집출입문으로부터 10m이내,서울특별시,종로구,어린이집출입문,서울특별시 종로구 금연환경조성 및 간접흡연 피해방지 조례,,100000,02-2148-3544,서울특별시 종로구 지봉로12가길 35,,서울특별시 종로구청,37.575604,127.016987,2021-07-12
종교교회어린이집,어린이집출입문으로부터 10m이내,서울특별시,종로구,어린이집출입문,서울특별시 종로구 금연환경조성 및 간접흡연 피해방지 조례,,100000,02-2148-3544,서울특별시 종로구 사직로8길 48,,서울특별시 종로구청,37.5737292,126.973898,2021-07-12
종로구청어린이집,어린이집출입문으로부터 10m이내,서울특별시,종로구,어린이집출입문,서울특별시 종로구 금연환경조성 및 간접흡연 피해방지 조례,,100000,02-2148-3544,서울특별시 종로구 삼봉로 43,,서울특별시 종로구청,37.573141,126.9788134,2021-07-12
종로생명숲어린이집,어린이집출입문으로부터 10m이내,서울특별시,종로구,어린이집출입문,서울특별시 종로구 금연환경조성 및 간접흡연 피해방지 조례,,100000,02-2148-3544,서울특별시 종로구 평창문화로 73-7,,서울특별시 종로구청,37.60646733,126.9681766,2021-07-12
창신어린이집,어린이집출입문으로부터 10m이내,서울특별시,종로구,어린이집출입문,서울특별시 종로구 금연환경조성 및 간접흡연 피해방지 조례,,100000,02-2148-3544,서울특별시 종로구 창신5길 22,,서울특별시 종로구청,37.57364606,127.0120174,2021-07-12
창신제일어린이집,어린이집출입문으로부터 10m이내,서울특별시,종로구,어린이집출입문,서울특별시 종로구 금연환경조성 및 간접흡연 피해방지 조례,,100000,02-2148-3544,서울특별시 종로구 창신7가길 3,,서울특별시 종로구청,37.57570774,127.0097038,2021-07-12
창이어린이집,어린이집출입문으로부터 10m이내,서울특별시,종로구,어린이집출입문,서울특별시 종로구 금연환경조성 및 간접흡연 피해방지 조례,,100000,02-2148-3544,서울특별시 종로구 낙산성곽동길 69,,서울특별시 종로구청,37.578506,127.008594,2021-07-12
창일어린이집,어린이집출입문으로부터 10m이내,서울특별시,종로구,어린이집출입문,서울특별시 종로구 금연환경조성 및 간접흡연 피해방지 조례,,100000,02-2148-3544,서울특별시 종로구 종로50라길 41-3,,서울특별시 종로구청,37.57042017,127.014882,2021-07-12
천사어린이집,어린이집출입문으로부터 10m이내,서울특별시,종로구,어린이집출입문,서울특별시 종로구 금연환경조성 및 간접흡연 피해방지 조례,,100000,02-2148-3544,서울특별시 종로구 낙산길 198,,서울특별시 종로구청,37.58041801,127.0111853,2021-07-12
청운어린이집,어린이집출입문으로부터 10m이내,서울특별시,종로구,어린이집출입문,서울특별시 종로구 금연환경조성 및 간접흡연 피해방지 조례,,100000,02-2148-3544,서울특별시 종로구 자하문로35길 21,,서울특별시 종로구청,37.588312,126.9660512,2021-07-12
초동어린이집,어린이집출입문으로부터 10m이내,서울특별시,종로구,어린이집출입문,서울특별시 종로구 금연환경조성 및 간접흡연 피해방지 조례,,100000,02-2148-3544,서울특별시 종로구 돈화문로5가길 23,,서울특별시 종로구청,37.571729,126.991219,2021-07-12
푸르지오어린이집,어린이집출입문으로부터 10m이내,서울특별시,종로구,어린이집출입문,서울특별시 종로구 금연환경조성 및 간접흡연 피해방지 조례,,100000,02-2148-3544,서울특별시 종로구 새문안로 75(신문로1가),,서울특별시 종로구청,37.570621,126.9729868,2021-07-12
한빛어린이집,어린이집출입문으로부터 10m이내,서울특별시,종로구,어린이집출입문,서울특별시 종로구 금연환경조성 및 간접흡연 피해방지 조례,,100000,02-2148-3544,서울특별시 종로구 종로65길 10,,서울특별시 종로구청,37.574831,127.019965,2021-07-12
한숲어린이집,어린이집출입문으로부터 10m이내,서울특별시,종로구,어린이집출입문,서울특별시 종로구 금연환경조성 및 간접흡연 피해방지 조례,,100000,02-2148-3544,서울특별시 종로구 종로1길 36,,서울특별시 종로구청,37.57350424,126.9789883,2021-07-12
현대다솜어린이집,어린이집출입문으로부터 10m이내,서울특별시,종로구,어린이집출입문,서울특별시 종로구 금연환경조성 및 간접흡연 피해방지 조례,,100000,02-2148-3544,서울특별시 종로구 창덕궁길 19,,서울특별시 종로구청,37.57823398,126.9885598,2021-07-12
현대해상온마음어린이집,어린이집출입문으로부터 10m이내,서울특별시,종로구,어린이집출입문,서울특별시 종로구 금연환경조성 및 간접흡연 피해방지 조례,,100000,02-2148-3544,서울특별시 종로구 경희궁1길 9,,서울특별시 종로구청,37.57112393,126.9710215,2021-07-12
혜화어린이집,어린이집출입문으로부터 10m이내,서울특별시,종로구,어린이집출입문,서울특별시 종로구 금연환경조성 및 간접흡연 피해방지 조례,,100000,02-2148-3544,서울특별시 종로구 대명길 3,,서울특별시 종로구청,37.583386,127.0013224,2021-07-12
독립문,버스정류소 승차대 또는 표지판 경계로부터 10m이내,서울특별시,종로구,가로변버스정류소,서울특별시 종로구 금연환경조성 및 간접흡연 피해방지 조례,,100000,02-2148-3544,서울특별시 종로구 통일로 230,,서울특별시 종로구청,37.57437462,126.9586043,2021-07-12
서대문.서울시교육청,버스정류소 승차대 또는 표지판 경계로부터 10m이내,서울특별시,종로구,가로변버스정류소,서울특별시 종로구 금연환경조성 및 간접흡연 피해방지 조례,,100000,02-2148-3544,서울특별시 종로구 통일로 160,,서울특별시 종로구청,37.56847321,126.9644574,2021-07-12
"서대문역사거리, 적십자병원",버스정류소 승차대 또는 표지판 경계로부터 10m이내,서울특별시,종로구,가로변버스정류소,서울특별시 종로구 금연환경조성 및 간접흡연 피해방지 조례,,100000,02-2148-3544,서울특별시 종로구 새문안로 9,,서울특별시 종로구청,37.56676211,126.9672019,2021-07-12
독립문역,버스정류소 승차대 또는 표지판 경계로부터 10m이내,서울특별시,종로구,가로변버스정류소,서울특별시 종로구 금연환경조성 및 간접흡연 피해방지 조례,,100000,02-2148-3544,서울특별시 종로구 통일로 230,,서울특별시 종로구청,37.57437462,126.9586043,2021-07-12
국민은행세검정지점,버스정류소 승차대 또는 표지판 경계로부터 10m이내,서울특별시,종로구,가로변버스정류소,서울특별시 종로구 금연환경조성 및 간접흡연 피해방지 조례,,100000,02-2148-3544,서울특별시 종로구 진흥로 487,,서울특별시 종로구청,37.60512094,126.9611286,2021-07-12
국민은행세검정지점,버스정류소 승차대 또는 표지판 경계로부터 10m이내,서울특별시,종로구,가로변버스정류소,서울특별시 종로구 금연환경조성 및 간접흡연 피해방지 조례,,100000,02-2148-3544,서울특별시 종로구 진흥로 496,,서울특별시 종로구청,37.6042884,126.9610293,2021-07-12
부암동주민센터.무계원,버스정류소 승차대 또는 표지판 경계로부터 10m이내,서울특별시,종로구,가로변버스정류소,서울특별시 종로구 금연환경조성 및 간접흡연 피해방지 조례,,100000,02-2148-3544,서울특별시 종로구 창의문로 138,,서울특별시 종로구청,37.59280388,126.9652475,2021-07-12
부암동주민센터.무계원,버스정류소 승차대 또는 표지판 경계로부터 10m이내,서울특별시,종로구,가로변버스정류소,서울특별시 종로구 금연환경조성 및 간접흡연 피해방지 조례,,100000,02-2148-3544,서울특별시 종로구 창의문로 145,,서울특별시 종로구청,37.59241069,126.9640655,2021-07-12
상명대입구,버스정류소 승차대 또는 표지판 경계로부터 10m이내,서울특별시,종로구,가로변버스정류소,서울특별시 종로구 금연환경조성 및 간접흡연 피해방지 조례,,100000,02-2148-3544,서울특별시 종로구 홍지문길 2,,서울특별시 종로구청,37.60002366,126.9574214,2021-07-12
상명대입구,버스정류소 승차대 또는 표지판 경계로부터 10m이내,서울특별시,종로구,가로변버스정류소,서울특별시 종로구 금연환경조성 및 간접흡연 피해방지 조례,,100000,02-2148-3544,서울특별시 종로구 홍지문길 7,,서울특별시 종로구청,37.60014958,126.9568189,2021-07-12
상명대입구.세검정교회,버스정류소 승차대 또는 표지판 경계로부터 10m이내,서울특별시,종로구,가로변버스정류소,서울특별시 종로구 금연환경조성 및 간접흡연 피해방지 조례,,100000,02-2148-3544,서울특별시 종로구 자하문로 300,,서울특별시 종로구청,37.59950915,126.9598723,2021-07-12
상명대입구.세검정교회,버스정류소 승차대 또는 표지판 경계로부터 10m이내,서울특별시,종로구,가로변버스정류소,서울특별시 종로구 금연환경조성 및 간접흡연 피해방지 조례,,100000,02-2148-3544,서울특별시 종로구 자하문로 306,,서울특별시 종로구청,37.59974314,126.9590794,2021-07-12
상명대정문,버스정류소 승차대 또는 표지판 경계로부터 10m이내,서울특별시,종로구,가로변버스정류소,서울특별시 종로구 금연환경조성 및 간접흡연 피해방지 조례,,100000,02-2148-3544,서울특별시 종로구 홍지문2길 20,,서울특별시 종로구청,37.60410972,126.9551587,2021-07-12
"세검정, 상명대",버스정류소 승차대 또는 표지판 경계로부터 10m이내,서울특별시,종로구,가로변버스정류소,서울특별시 종로구 금연환경조성 및 간접흡연 피해방지 조례,,100000,02-2148-3544,서울특별시 종로구 세검정로 227-4,,서울특별시 종로구청,37.60061128,126.9578877,2021-07-12
"세검정,상명대",버스정류소 승차대 또는 표지판 경계로부터 10m이내,서울특별시,종로구,가로변버스정류소,서울특별시 종로구 금연환경조성 및 간접흡연 피해방지 조례,,100000,02-2148-3544,서울특별시 종로구 세검정로 240,,서울특별시 종로구청,37.60065499,126.9592148,2021-07-12
세검정초등학교,버스정류소 승차대 또는 표지판 경계로부터 10m이내,서울특별시,종로구,가로변버스정류소,서울특별시 종로구 금연환경조성 및 간접흡연 피해방지 조례,,100000,02-2148-3544,서울특별시 종로구 세검정로 267,,서울특별시 종로구청,37.602321,126.9609896,2021-07-12
세검정초등학교,버스정류소 승차대 또는 표지판 경계로부터 10m이내,서울특별시,종로구,가로변버스정류소,서울특별시 종로구 금연환경조성 및 간접흡연 피해방지 조례,,100000,02-2148-3544,서울특별시 종로구 세검정로 267,,서울특별시 종로구청,37.60234224,126.9609896,2021-07-12
상명대입구.석파랑,버스정류소 승차대 또는 표지판 경계로부터 10m이내,서울특별시,종로구,가로변버스정류소,서울특별시 종로구 금연환경조성 및 간접흡연 피해방지 조례,,100000,02-2148-3544,서울특별시 종로구 자하문로 309,,서울특별시 종로구청,37.59925649,126.958749,2021-07-12
상명대입구.석파랑,버스정류소 승차대 또는 표지판 경계로부터 10m이내,서울특별시,종로구,가로변버스정류소,서울특별시 종로구 금연환경조성 및 간접흡연 피해방지 조례,,100000,02-2148-3544,서울특별시 종로구 자하문로 311,,서울특별시 종로구청,37.59937528,126.958364,2021-07-12
하림각,버스정류소 승차대 또는 표지판 경계로부터 10m이내,서울특별시,종로구,가로변버스정류소,서울특별시 종로구 금연환경조성 및 간접흡연 피해방지 조례,,100000,02-2148-3544,서울특별시 종로구 자하문로 276,,서울특별시 종로구청,37.59820895,126.9623868,2021-07-12
하림각,버스정류소 승차대 또는 표지판 경계로부터 10m이내,서울특별시,종로구,가로변버스정류소,서울특별시 종로구 금연환경조성 및 간접흡연 피해방지 조례,,100000,02-2148-3544,서울특별시 종로구 자하문로 273,,서울특별시 종로구청,37.598046,126.9619295,2021-07-12
경복궁역,버스정류소 승차대 또는 표지판 경계로부터 10m이내,서울특별시,종로구,가로변버스정류소,서울특별시 종로구 금연환경조성 및 간접흡연 피해방지 조례,,100000,02-2148-3544,서울특별시 종로구 자하문로 7,,서울특별시 종로구청,37.57671399,126.9722058,2021-07-12
경복궁역,버스정류소 승차대 또는 표지판 경계로부터 10m이내,서울특별시,종로구,가로변버스정류소,서울특별시 종로구 금연환경조성 및 간접흡연 피해방지 조례,,100000,02-2148-3544,서울특별시 종로구 자하문로 12,,서울특별시 종로구청,37.5771105,126.9725317,2021-07-12
광화문,버스정류소 승차대 또는 표지판 경계로부터 10m이내,서울특별시,종로구,가로변버스정류소,서울특별시 종로구 금연환경조성 및 간접흡연 피해방지 조례,,100000,02-2148-3544,서울특별시 종로구 새문안로 97,,서울특별시 종로구청,37.57069965,126.9753982,2021-07-12
광화문,버스정류소 승차대 또는 표지판 경계로부터 10m이내,서울특별시,종로구,가로변버스정류소,서울특별시 종로구 금연환경조성 및 간접흡연 피해방지 조례,,100000,02-2148-3544,서울특별시 종로구 새문안로 101-2,,서울특별시 종로구청,37.570374,126.9760025,2021-07-12
광화문광화문빌딩,버스정류소 승차대 또는 표지판 경계로부터 10m이내,서울특별시,종로구,가로변버스정류소,서울특별시 종로구 금연환경조성 및 간접흡연 피해방지 조례,,100000,02-2148-3544,서울특별시 종로구 세종대로 147-2,,서울특별시 종로구청,37.56939888,126.9766819,2021-07-12
사직단,버스정류소 승차대 또는 표지판 경계로부터 10m이내,서울특별시,종로구,가로변버스정류소,서울특별시 종로구 금연환경조성 및 간접흡연 피해방지 조례,,100000,02-2148-3544,서울특별시 종로구 사직로 89,,서울특별시 종로구청,37.57560285,126.967832,2021-07-12
사직단,버스정류소 승차대 또는 표지판 경계로부터 10m이내,서울특별시,종로구,가로변버스정류소,서울특별시 종로구 금연환경조성 및 간접흡연 피해방지 조례,,100000,02-2148-3544,서울특별시 종로구 사직로8길 48,,서울특별시 종로구청,37.57378073,126.9738822,2021-07-12
사직동주민센터/경복궁,버스정류소 승차대 또는 표지판 경계로부터 10m이내,서울특별시,종로구,가로변버스정류소,서울특별시 종로구 금연환경조성 및 간접흡연 피해방지 조례,,100000,02-2148-3544,서울특별시 종로구 사직로 115,,서울특별시 종로구청,37.57629215,126.9715131,2021-07-12
서울역사박물관(경교장),버스정류소 승차대 또는 표지판 경계로부터 10m이내,서울특별시,종로구,가로변버스정류소,서울특별시 종로구 금연환경조성 및 간접흡연 피해방지 조례,,100000,02-2148-3544,서울특별시 종로구 새문안로 68,,서울특별시 종로구청,37.56964296,126.9721405,2021-07-12
서울역사박물관.경교장.강북삼성병원,버스정류소 승차대 또는 표지판 경계로부터 10m이내,서울특별시,종로구,가로변버스정류소,서울특별시 종로구 금연환경조성 및 간접흡연 피해방지 조례,,100000,02-2148-3544,서울특별시 종로구 새문안로 41,,서울특별시 종로구청,37.56901165,126.969664,2021-07-12
"서울지방경찰청,경복궁역",버스정류소 승차대 또는 표지판 경계로부터 10m이내,서울특별시,종로구,가로변버스정류소,서울특별시 종로구 금연환경조성 및 간접흡연 피해방지 조례,,100000,02-2148-3544,서울특별시 종로구 사직로 114,,서울특별시 종로구청,37.57574431,126.9713503,2021-07-12
세종문화회관,버스정류소 승차대 또는 표지판 경계로부터 10m이내,서울특별시,종로구,가로변버스정류소,서울특별시 종로구 금연환경조성 및 간접흡연 피해방지 조례,,100000,02-2148-3544,서울특별시 종로구 세종대로 175,,서울특별시 종로구청,37.57184786,126.9761683,2021-07-12
세종문화회관,버스정류소 승차대 또는 표지판 경계로부터 10m이내,서울특별시,종로구,가로변버스정류소,서울특별시 종로구 금연환경조성 및 간접흡연 피해방지 조례,,100000,02-2148-3544,서울특별시 종로구 세종대로 175,,서울특별시 종로구청,37.57184786,126.9761683,2021-07-12
덕성여중고,버스정류소 승차대 또는 표지판 경계로부터 10m이내,서울특별시,종로구,가로변버스정류소,서울특별시 종로구 금연환경조성 및 간접흡연 피해방지 조례,,100000,02-2148-3544,서울특별시 종로구 율곡로 5,,서울특별시 종로구청,37.57609935,126.9803748,2021-07-12
"안국역,종로경찰서,인사동",버스정류소 승차대 또는 표지판 경계로부터 10m이내,서울특별시,종로구,가로변버스정류소,서울특별시 종로구 금연환경조성 및 간접흡연 피해방지 조례,,100000,02-2148-3544,서울특별시 종로구 율곡로 38,,서울특별시 종로구청,37.57560974,126.9839069,2021-07-12
동묘앞,버스정류소 승차대 또는 표지판 경계로부터 10m이내,서울특별시,종로구,가로변버스정류소,서울특별시 종로구 금연환경조성 및 간접흡연 피해방지 조례,,100000,02-2148-3544,서울특별시 종로구 종로 361,,서울특별시 종로구청,37.57372104,127.0175688,2021-07-12
숭인1동주민센터,버스정류소 승차대 또는 표지판 경계로부터 10m이내,서울특별시,종로구,가로변버스정류소,서울특별시 종로구 금연환경조성 및 간접흡연 피해방지 조례,,100000,02-2148-3544,서울특별시 종로구 지봉로 84,,서울특별시 종로구청,37.57757398,127.0155727,2021-07-12
종로구민회관숭인동,버스정류소 승차대 또는 표지판 경계로부터 10m이내,서울특별시,종로구,가로변버스정류소,서울특별시 종로구 금연환경조성 및 간접흡연 피해방지 조례,,100000,02-2148-3544,서울특별시 종로구 지봉로 43,,서울특별시 종로구청,37.57406012,127.0154362,2021-07-12
동묘역앞,버스정류소 승차대 또는 표지판 경계로부터 10m이내,서울특별시,종로구,가로변버스정류소,서울특별시 종로구 금연환경조성 및 간접흡연 피해방지 조례,,100000,02-2148-3544,서울특별시 종로구 지봉로 19,,서울특별시 종로구청,37.57173918,127.0152048,2021-07-12
숭인동,버스정류소 승차대 또는 표지판 경계로부터 10m이내,서울특별시,종로구,가로변버스정류소,서울특별시 종로구 금연환경조성 및 간접흡연 피해방지 조례,,100000,02-2148-3544,서울특별시 종로구 종로 386,,서울특별시 종로구청,37.57408099,127.0203536,2021-07-12
신설동로터리,버스정류소 승차대 또는 표지판 경계로부터 10m이내,서울특별시,종로구,가로변버스정류소,서울특별시 종로구 금연환경조성 및 간접흡연 피해방지 조례,,100000,02-2148-3544,서울특별시 종로구 종로 413,,서울특별시 종로구청,37.57597629,127.0225367,2021-07-12
"신설동로터리,신한은행,서울풍물시장",버스정류소 승차대 또는 표지판 경계로부터 10m이내,서울특별시,종로구,가로변버스정류소,서울특별시 종로구 금연환경조성 및 간접흡연 피해방지 조례,,100000,02-2148-3544,서울특별시 종로구 난계로 255,,서울특별시 종로구청,37.57433641,127.0229121,2021-07-12
청계8가.황학교,버스정류소 승차대 또는 표지판 경계로부터 10m이내,서울특별시,종로구,가로변버스정류소,서울특별시 종로구 금연환경조성 및 간접흡연 피해방지 조례,,100000,02-2148-3544,서울특별시 종로구 청계천로 407,,서울특별시 종로구청,37.572203,127.022685,2021-07-12
이화동(이화장),버스정류소 승차대 또는 표지판 경계로부터 10m이내,서울특별시,종로구,가로변버스정류소,서울특별시 종로구 금연환경조성 및 간접흡연 피해방지 조례,,100000,02-2148-3544,서울특별시 종로구 율곡로 220,,서울특별시 종로구청,37.57595317,127.0031878,2021-07-12
이화동(이화장),버스정류소 승차대 또는 표지판 경계로부터 10m이내,서울특별시,종로구,가로변버스정류소,서울특별시 종로구 금연환경조성 및 간접흡연 피해방지 조례,,100000,02-2148-3544,서울특별시 종로구 율곡로 217-1,,서울특별시 종로구청,37.57632078,127.0030882,2021-07-12
이화동(이화장),버스정류소 승차대 또는 표지판 경계로부터 10m이내,서울특별시,종로구,가로변버스정류소,서울특별시 종로구 금연환경조성 및 간접흡연 피해방지 조례,,100000,02-2148-3544,서울특별시 종로구 율곡로 195,,서울특별시 종로구청,37.57619108,127.0004392,2021-07-12
창경궁.서울대학교병원,버스정류소 승차대 또는 표지판 경계로부터 10m이내,서울특별시,종로구,가로변버스정류소,서울특별시 종로구 금연환경조성 및 간접흡연 피해방지 조례,,100000,02-2148-3544,서울특별시 종로구 창경궁로 202-1,,서울특별시 종로구청,37.58046174,126.9966218,2021-07-12
통신대(이화장),버스정류소 승차대 또는 표지판 경계로부터 10m이내,서울특별시,종로구,가로변버스정류소,서울특별시 종로구 금연환경조성 및 간접흡연 피해방지 조례,,100000,02-2148-3544,서울특별시 종로구 대학로 71,,서울특별시 종로구청,37.57774438,127.0017751,2021-07-12
통신대(이화장),버스정류소 승차대 또는 표지판 경계로부터 10m이내,서울특별시,종로구,가로변버스정류소,서울특별시 종로구 금연환경조성 및 간접흡연 피해방지 조례,,100000,02-2148-3544,서울특별시 종로구 대학로 86,,서울특별시 종로구청,37.57919675,127.0032921,2021-07-12
"혜화역,마로니에공원",버스정류소 승차대 또는 표지판 경계로부터 10m이내,서울특별시,종로구,가로변버스정류소,서울특별시 종로구 금연환경조성 및 간접흡연 피해방지 조례,,100000,02-2148-3544,서울특별시 종로구 대학로 112,,서울특별시 종로구청,37.58118977,127.0023986,2021-07-12
"혜화역,서울대병원입구",버스정류소 승차대 또는 표지판 경계로부터 10m이내,서울특별시,종로구,가로변버스정류소,서울특별시 종로구 금연환경조성 및 간접흡연 피해방지 조례,,100000,02-2148-3544,서울특별시 종로구 대학로 103-2,,서울특별시 종로구청,37.58040771,127.0019563,2021-07-12
KT광화문지사,버스정류소 승차대 또는 표지판 경계로부터 10m이내,서울특별시,종로구,가로변버스정류소,서울특별시 종로구 금연환경조성 및 간접흡연 피해방지 조례,,100000,02-2148-3544,서울특별시 종로구 세종대로 175,,서울특별시 종로구청,37.57184786,126.9761683,2021-07-12
광장시장,버스정류소 승차대 또는 표지판 경계로부터 10m이내,서울특별시,종로구,가로변버스정류소,서울특별시 종로구 금연환경조성 및 간접흡연 피해방지 조례,,100000,02-2148-3544,서울특별시 종로구 창경궁로 79,,서울특별시 종로구청,37.56942999,126.9976818,2021-07-12
무교동,버스정류소 승차대 또는 표지판 경계로부터 10m이내,서울특별시,종로구,가로변버스정류소,서울특별시 종로구 금연환경조성 및 간접흡연 피해방지 조례,,100000,02-2148-3544,서울특별시 종로구 청계천로 17,,서울특별시 종로구청,37.569403,126.9794982,2021-07-12
안국동,버스정류소 승차대 또는 표지판 경계로부터 10m이내,서울특별시,종로구,가로변버스정류소,서울특별시 종로구 금연환경조성 및 간접흡연 피해방지 조례,,100000,02-2148-3544,서울특별시 종로구 우정국로 63,,서울특별시 종로구청,37.57475542,126.9826438,2021-07-12
"안국역,종로경찰서,인사동",버스정류소 승차대 또는 표지판 경계로부터 10m이내,서울특별시,종로구,가로변버스정류소,서울특별시 종로구 금연환경조성 및 간접흡연 피해방지 조례,,100000,02-2148-3544,서울특별시 종로구 율곡로 42,,서울특별시 종로구청,37.57555213,126.9842918,2021-07-12
"안국역,종로경찰서,인사동",버스정류소 승차대 또는 표지판 경계로부터 10m이내,서울특별시,종로구,가로변버스정류소,서울특별시 종로구 금연환경조성 및 간접흡연 피해방지 조례,,100000,02-2148-3544,서울특별시 종로구 율곡로 39,,서울특별시 종로구청,37.57604221,126.9838253,2021-07-12
원남동,버스정류소 승차대 또는 표지판 경계로부터 10m이내,서울특별시,종로구,가로변버스정류소,서울특별시 종로구 금연환경조성 및 간접흡연 피해방지 조례,,100000,02-2148-3544,서울특별시 종로구 창경궁로 135,,서울특별시 종로구청,37.5744287,126.9972741,2021-07-12
원남동사거리,버스정류소 승차대 또는 표지판 경계로부터 10m이내,서울특별시,종로구,가로변버스정류소,서울특별시 종로구 금연환경조성 및 간접흡연 피해방지 조례,,100000,02-2148-3544,서울특별시 종로구 율곡로 174,,서울특별시 종로구청,37.57562523,126.9979578,2021-07-12
조계사,버스정류소 승차대 또는 표지판 경계로부터 10m이내,서울특별시,종로구,가로변버스정류소,서울특별시 종로구 금연환경조성 및 간접흡연 피해방지 조례,,100000,02-2148-3544,서울특별시 종로구 우정국로 40,,서울특별시 종로구청,37.57258231,126.9832556,2021-07-12
조계사,버스정류소 승차대 또는 표지판 경계로부터 10m이내,서울특별시,종로구,가로변버스정류소,서울특별시 종로구 금연환경조성 및 간접흡연 피해방지 조례,,100000,02-2148-3544,서울특별시 종로구 우정국로 39,,서울특별시 종로구청,37.572623,126.9826669,2021-07-12
조계사,버스정류소 승차대 또는 표지판 경계로부터 10m이내,서울특별시,종로구,가로변버스정류소,서울특별시 종로구 금연환경조성 및 간접흡연 피해방지 조례,,100000,02-2148-3544,서울특별시 종로구 우정국로 42,,서울특별시 종로구청,37.57274089,126.983328,2021-07-12
"종로5가,효제동",버스정류소 승차대 또는 표지판 경계로부터 10m이내,서울특별시,종로구,가로변버스정류소,서울특별시 종로구 금연환경조성 및 간접흡연 피해방지 조례,,100000,02-2148-3544,서울특별시 종로구 대학로 40,,서울특별시 종로구청,37.57460891,127.0022686,2021-07-12
창덕궁.서울돈화문국악당,버스정류소 승차대 또는 표지판 경계로부터 10m이내,서울특별시,종로구,가로변버스정류소,서울특별시 종로구 금연환경조성 및 간접흡연 피해방지 조례,,100000,02-2148-3544,서울특별시 종로구 율곡로 83,,서울특별시 종로구청,37.57776184,126.9884166,2021-07-12
창덕궁.서울돈화문국악당,버스정류소 승차대 또는 표지판 경계로부터 10m이내,서울특별시,종로구,가로변버스정류소,서울특별시 종로구 금연환경조성 및 간접흡연 피해방지 조례,,100000,02-2148-3544,서울특별시 종로구 율곡로 82,,서울특별시 종로구청,37.57717076,126.9881586,2021-07-12
"청계1가,광교",버스정류소 승차대 또는 표지판 경계로부터 10m이내,서울특별시,종로구,가로변버스정류소,서울특별시 종로구 금연환경조성 및 간접흡연 피해방지 조례,,100000,02-2148-3544,서울특별시 종로구 청계천로 67,,서울특별시 종로구청,37.56883802,126.9851082,2021-07-12
"청계2가, 수표교",버스정류소 승차대 또는 표지판 경계로부터 10m이내,서울특별시,종로구,가로변버스정류소,서울특별시 종로구 금연환경조성 및 간접흡연 피해방지 조례,,100000,02-2148-3544,서울특별시 종로구 청계천로 117,,서울특별시 종로구청,37.56860434,126.9907498,2021-07-12
"청계4가, 세운교",버스정류소 승차대 또는 표지판 경계로부터 10m이내,서울특별시,종로구,가로변버스정류소,서울특별시 종로구 금연환경조성 및 간접흡연 피해방지 조례,,100000,02-2148-3544,서울특별시 종로구 청계천로 169-1,,서울특별시 종로구청,37.56895423,126.996491,2021-07-12
"청계5가,광장시장",버스정류소 승차대 또는 표지판 경계로부터 10m이내,서울특별시,종로구,가로변버스정류소,서울특별시 종로구 금연환경조성 및 간접흡연 피해방지 조례,,100000,02-2148-3544,서울특별시 종로구 청계천로 199-1,,서울특별시 종로구청,37.56955615,126.9998279,2021-07-12
혜화경찰서,버스정류소 승차대 또는 표지판 경계로부터 10m이내,서울특별시,종로구,가로변버스정류소,서울특별시 종로구 금연환경조성 및 간접흡연 피해방지 조례,,100000,02-2148-3544,서울특별시 종로구 창경궁로 113,,서울특별시 종로구청,37.5726123,126.9974462,2021-07-12
"안국역,종로경찰서,인사동",버스정류소 승차대 또는 표지판 경계로부터 10m이내,서울특별시,종로구,가로변버스정류소,서울특별시 종로구 금연환경조성 및 간접흡연 피해방지 조례,,100000,02-2148-3544,서울특별시 종로구 율곡로 49,,서울특별시 종로구청,37.5764676,126.9847943,2021-07-12
종로2가,버스정류소 승차대 또는 표지판 경계로부터 10m이내,서울특별시,종로구,가로변버스정류소,서울특별시 종로구 금연환경조성 및 간접흡연 피해방지 조례,,100000,02-2148-3544,서울특별시 종로구 종로 79,,서울특별시 종로구청,37.57042031,126.9862761,2021-07-12
"청계3가,관수교",버스정류소 승차대 또는 표지판 경계로부터 10m이내,서울특별시,종로구,가로변버스정류소,서울특별시 종로구 금연환경조성 및 간접흡연 피해방지 조례,,100000,02-2148-3544,서울특별시 종로구 청계천로 145,,서울특별시 종로구청,37.56873788,126.9937653,2021-07-12
종로5가,버스정류소 승차대 또는 표지판 경계로부터 10m이내,서울특별시,종로구,가로변버스정류소,서울특별시 종로구 금연환경조성 및 간접흡연 피해방지 조례,,100000,02-2148-3544,서울특별시 종로구 동호로 404,,서울특별시 종로구청,37.57047514,127.0022186,2021-07-12
"종로5가,효제초등학교",버스정류소 승차대 또는 표지판 경계로부터 10m이내,서울특별시,종로구,가로변버스정류소,서울특별시 종로구 금연환경조성 및 간접흡연 피해방지 조례,,100000,02-2148-3544,서울특별시 종로구 대학로 20,,서울특별시 종로구청,37.57280332,127.0022097,2021-07-12
충신동,버스정류소 승차대 또는 표지판 경계로부터 10m이내,서울특별시,종로구,가로변버스정류소,서울특별시 종로구 금연환경조성 및 간접흡연 피해방지 조례,,100000,02-2148-3544,서울특별시 종로구 율곡로 256-1,,서울특별시 종로구청,37.574075,127.0062442,2021-07-12
충신동,버스정류소 승차대 또는 표지판 경계로부터 10m이내,서울특별시,종로구,가로변버스정류소,서울특별시 종로구 금연환경조성 및 간접흡연 피해방지 조례,,100000,02-2148-3544,서울특별시 종로구 율곡로 255,,서울특별시 종로구청,37.57436728,127.0065114,2021-07-12
현대그룹빌딩,버스정류소 승차대 또는 표지판 경계로부터 10m이내,서울특별시,종로구,가로변버스정류소,서울특별시 종로구 금연환경조성 및 간접흡연 피해방지 조례,,100000,02-2148-3544,서울특별시 종로구 율곡로 194,,서울특별시 종로구청,37.57531891,127.0007245,2021-07-12
동대문,버스정류소 승차대 또는 표지판 경계로부터 10m이내,서울특별시,종로구,가로변버스정류소,서울특별시 종로구 금연환경조성 및 간접흡연 피해방지 조례,,100000,02-2148-3544,서울특별시 종로구 율곡로 288,,서울특별시 종로구청,37.571794,127.0083812,2021-07-12
종로중부새마을금고,버스정류소 승차대 또는 표지판 경계로부터 10m이내,서울특별시,종로구,가로변버스정류소,서울특별시 종로구 금연환경조성 및 간접흡연 피해방지 조례,,100000,02-2148-3544,서울특별시 종로구 종로41길 30,,서울특별시 종로구청,37.57259412,127.0066108,2021-07-12
"청계6가,동대문시장",버스정류소 승차대 또는 표지판 경계로부터 10m이내,서울특별시,종로구,가로변버스정류소,서울특별시 종로구 금연환경조성 및 간접흡연 피해방지 조례,,100000,02-2148-3544,서울특별시 종로구 청계천로 227,,서울특별시 종로구청,37.56992012,127.002857,2021-07-12
"청계6가,버들다리",버스정류소 승차대 또는 표지판 경계로부터 10m이내,서울특별시,종로구,가로변버스정류소,서울특별시 종로구 금연환경조성 및 간접흡연 피해방지 조례,,100000,02-2148-3544,서울특별시 종로구 청계천로 279,,서울특별시 종로구청,37.57044961,127.0087433,2021-07-12
동묘역앞,버스정류소 승차대 또는 표지판 경계로부터 10m이내,서울특별시,종로구,가로변버스정류소,서울특별시 종로구 금연환경조성 및 간접흡연 피해방지 조례,,100000,02-2148-3544,서울특별시 종로구 지봉로 24-2,,서울특별시 종로구청,37.57216436,127.0159293,2021-07-12
창신동두산아파트,버스정류소 승차대 또는 표지판 경계로부터 10m이내,서울특별시,종로구,가로변버스정류소,서울특별시 종로구 금연환경조성 및 간접흡연 피해방지 조례,,100000,02-2148-3544,서울특별시 종로구 지봉로 43,,서울특별시 종로구청,37.57406012,127.0154362,2021-07-12
"청계7가,맑은내다리",버스정류소 승차대 또는 표지판 경계로부터 10m이내,서울특별시,종로구,가로변버스정류소,서울특별시 종로구 금연환경조성 및 간접흡연 피해방지 조례,,100000,02-2148-3544,서울특별시 종로구 청계천로 319,,서울특별시 종로구청,37.5701032,127.0133661,2021-07-12
"청계8가,영도교",버스정류소 승차대 또는 표지판 경계로부터 10m이내,서울특별시,종로구,가로변버스정류소,서울특별시 종로구 금연환경조성 및 간접흡연 피해방지 조례,,100000,02-2148-3544,서울특별시 종로구 청계천로 345,,서울특별시 종로구청,37.57021456,127.0162323,2021-07-12
창신3동주민센터,버스정류소 승차대 또는 표지판 경계로부터 10m이내,서울특별시,종로구,가로변버스정류소,서울특별시 종로구 금연환경조성 및 간접흡연 피해방지 조례,,100000,02-2148-3544,서울특별시 종로구 지봉로 91-1,,서울특별시 종로구청,37.578305,127.0151608,2021-07-12
경기상고,버스정류소 승차대 또는 표지판 경계로부터 10m이내,서울특별시,종로구,가로변버스정류소,서울특별시 종로구 금연환경조성 및 간접흡연 피해방지 조례,,100000,02-2148-3544,서울특별시 종로구 자하문로 136,,서울특별시 종로구청,37.58925889,126.9700589,2021-07-12
경기상고,버스정류소 승차대 또는 표지판 경계로부터 10m이내,서울특별시,종로구,가로변버스정류소,서울특별시 종로구 금연환경조성 및 간접흡연 피해방지 조례,,100000,02-2148-3544,서울특별시 종로구 자하문로 131,,서울특별시 종로구청,37.58749275,126.9692897,2021-07-12
경복고교,버스정류소 승차대 또는 표지판 경계로부터 10m이내,서울특별시,종로구,가로변버스정류소,서울특별시 종로구 금연환경조성 및 간접흡연 피해방지 조례,,100000,02-2148-3544,서울특별시 종로구 자하문로28길 8,,서울특별시 종로구청,37.58479744,126.9711023,2021-07-12
경복고교,버스정류소 승차대 또는 표지판 경계로부터 10m이내,서울특별시,종로구,가로변버스정류소,서울특별시 종로구 금연환경조성 및 간접흡연 피해방지 조례,,100000,02-2148-3544,서울특별시 종로구 자하문로28길 5,,서울특별시 종로구청,37.58517577,126.970767,2021-07-12
신교동,버스정류소 승차대 또는 표지판 경계로부터 10m이내,서울특별시,종로구,가로변버스정류소,서울특별시 종로구 금연환경조성 및 간접흡연 피해방지 조례,,100000,02-2148-3544,서울특별시 종로구 자하문로 81,,서울특별시 종로구청,37.58325469,126.9701021,2021-07-12
"자하문고개, 윤동주문학관",버스정류소 승차대 또는 표지판 경계로부터 10m이내,서울특별시,종로구,가로변버스정류소,서울특별시 종로구 금연환경조성 및 간접흡연 피해방지 조례,,100000,02-2148-3544,서울특별시 종로구 창의문로 119,,서울특별시 종로구청,37.59209802,126.9670685,2021-07-12
"자하문고개, 윤동주문학관",버스정류소 승차대 또는 표지판 경계로부터 10m이내,서울특별시,종로구,가로변버스정류소,서울특별시 종로구 금연환경조성 및 간접흡연 피해방지 조례,,100000,02-2148-3544,서울특별시 종로구 창의문로 119,,서울특별시 종로구청,37.59209802,126.9670685,2021-07-12
청운중학교,버스정류소 승차대 또는 표지판 경계로부터 10m이내,서울특별시,종로구,가로변버스정류소,서울특별시 종로구 금연환경조성 및 간접흡연 피해방지 조례,,100000,02-2148-3544,서울특별시 종로구 창의문로 51,,서울특별시 종로구청,37.58917265,126.971087,2021-07-12
청운중학교,버스정류소 승차대 또는 표지판 경계로부터 10m이내,서울특별시,종로구,가로변버스정류소,서울특별시 종로구 금연환경조성 및 간접흡연 피해방지 조례,,100000,02-2148-3544,서울특별시 종로구 창의문로 51,,서울특별시 종로구청,37.58917265,126.971087,2021-07-12
"통인시장,종로보건소",버스정류소 승차대 또는 표지판 경계로부터 10m이내,서울특별시,종로구,가로변버스정류소,서울특별시 종로구 금연환경조성 및 간접흡연 피해방지 조례,,100000,02-2148-3544,서울특별시 종로구 자하문로 47,,서울특별시 종로구청,37.580201,126.9710135,2021-07-12
"통인시장,종로보건소",버스정류소 승차대 또는 표지판 경계로부터 10m이내,서울특별시,종로구,가로변버스정류소,서울특별시 종로구 금연환경조성 및 간접흡연 피해방지 조례,,100000,02-2148-3544,서울특별시 종로구 자하문로 50-1,,서울특별시 종로구청,37.58054843,126.971439,2021-07-12
효자동,버스정류소 승차대 또는 표지판 경계로부터 10m이내,서울특별시,종로구,가로변버스정류소,서울특별시 종로구 금연환경조성 및 간접흡연 피해방지 조례,,100000,02-2148-3544,서울특별시 종로구 자하문로 82,,서울특별시 종로구청,37.58335214,126.9706953,2021-07-12
강북삼성병원,버스정류소 승차대 또는 표지판 경계로부터 10m이내,서울특별시,종로구,가로변버스정류소,서울특별시 종로구 금연환경조성 및 간접흡연 피해방지 조례,,100000,02-2148-3544,서울특별시 종로구 새문안로 29,,서울특별시 종로구청,37.56886701,126.9678123,2021-07-12
갑을씨티텔앞,버스정류소 승차대 또는 표지판 경계로부터 10m이내,서울특별시,종로구,가로변버스정류소,서울특별시 종로구 금연환경조성 및 간접흡연 피해방지 조례,,100000,02-2148-3544,서울특별시 종로구 평창문화로 19,,서울특별시 종로구청,37.60461365,126.9638377,2021-07-12
구기동,버스정류소 승차대 또는 표지판 경계로부터 10m이내,서울특별시,종로구,가로변버스정류소,서울특별시 종로구 금연환경조성 및 간접흡연 피해방지 조례,,100000,02-2148-3544,서울특별시 종로구 진흥로 455,,서울특별시 종로구청,37.60718165,126.9589032,2021-07-12
구기동,버스정류소 승차대 또는 표지판 경계로부터 10m이내,서울특별시,종로구,가로변버스정류소,서울특별시 종로구 금연환경조성 및 간접흡연 피해방지 조례,,100000,02-2148-3544,서울특별시 종로구 진흥로 454,,서울특별시 종로구청,37.6070445,126.958337,2021-07-12
구기동현대빌라,버스정류소 승차대 또는 표지판 경계로부터 10m이내,서울특별시,종로구,가로변버스정류소,서울특별시 종로구 금연환경조성 및 간접흡연 피해방지 조례,,100000,02-2148-3544,서울특별시 종로구 비봉길 12,,서울특별시 종로구청,37.60952345,126.9567274,2021-07-12
구기동현대빌라,버스정류소 승차대 또는 표지판 경계로부터 10m이내,서울특별시,종로구,가로변버스정류소,서울특별시 종로구 금연환경조성 및 간접흡연 피해방지 조례,,100000,02-2148-3544,서울특별시 종로구 비봉길 15,,서울특별시 종로구청,37.60992685,126.9560658,2021-07-12
"구기터널,삼성출판박물관",버스정류소 승차대 또는 표지판 경계로부터 10m이내,서울특별시,종로구,가로변버스정류소,서울특별시 종로구 금연환경조성 및 간접흡연 피해방지 조례,,100000,02-2148-3544,서울특별시 종로구 진흥로 425,,서울특별시 종로구청,37.6088132,126.956003,2021-07-12
"구기터널,삼성출판박물관",버스정류소 승차대 또는 표지판 경계로부터 10m이내,서울특별시,종로구,가로변버스정류소,서울특별시 종로구 금연환경조성 및 간접흡연 피해방지 조례,,100000,02-2148-3544,서울특별시 종로구 진흥로 432,,서울특별시 종로구청,37.60818993,126.9565832,2021-07-12
롯데아파트,버스정류소 승차대 또는 표지판 경계로부터 10m이내,서울특별시,종로구,가로변버스정류소,서울특별시 종로구 금연환경조성 및 간접흡연 피해방지 조례,,100000,02-2148-3544,서울특별시 종로구 평창문화로 154,,서울특별시 종로구청,37.6101922,126.9766692,2021-07-12
롯데아파트,버스정류소 승차대 또는 표지판 경계로부터 10m이내,서울특별시,종로구,가로변버스정류소,서울특별시 종로구 금연환경조성 및 간접흡연 피해방지 조례,,100000,02-2148-3544,서울특별시 종로구 평창문화로 151,,서울특별시 종로구청,37.61058485,126.975763,2021-07-12
벽산평창힐스아파트,버스정류소 승차대 또는 표지판 경계로부터 10m이내,서울특별시,종로구,가로변버스정류소,서울특별시 종로구 금연환경조성 및 간접흡연 피해방지 조례,,100000,02-2148-3544,서울특별시 종로구 평창문화로 108,,서울특별시 종로구청,37.60793171,126.9728737,2021-07-12
"서울예술고등학교, 평창동주민센터",버스정류소 승차대 또는 표지판 경계로부터 10m이내,서울특별시,종로구,가로변버스정류소,서울특별시 종로구 금연환경조성 및 간접흡연 피해방지 조례,,100000,02-2148-3544,서울특별시 종로구 평창문화로 56,,서울특별시 종로구청,37.60568508,126.9674929,2021-07-12
승가사입구,버스정류소 승차대 또는 표지판 경계로부터 10m이내,서울특별시,종로구,가로변버스정류소,서울특별시 종로구 금연환경조성 및 간접흡연 피해방지 조례,,100000,02-2148-3544,서울특별시 종로구 비봉길 23,,서울특별시 종로구청,37.6107365,126.9563721,2021-07-12
승가사입구,버스정류소 승차대 또는 표지판 경계로부터 10m이내,서울특별시,종로구,가로변버스정류소,서울특별시 종로구 금연환경조성 및 간접흡연 피해방지 조례,,100000,02-2148-3544,서울특별시 종로구 비봉길 28,,서울특별시 종로구청,37.61114157,126.956577,2021-07-12
예능교회,버스정류소 승차대 또는 표지판 경계로부터 10m이내,서울특별시,종로구,가로변버스정류소,서울특별시 종로구 금연환경조성 및 간접흡연 피해방지 조례,,100000,02-2148-3544,서울특별시 종로구 평창문화로 72-11,,서울특별시 종로구청,37.60638132,126.9700249,2021-07-12
이북오도청,버스정류소 승차대 또는 표지판 경계로부터 10m이내,서울특별시,종로구,가로변버스정류소,서울특별시 종로구 금연환경조성 및 간접흡연 피해방지 조례,,100000,02-2148-3544,서울특별시 종로구 비봉길 48,,서울특별시 종로구청,37.61317404,126.9561486,2021-07-12
일성아파트,버스정류소 승차대 또는 표지판 경계로부터 10m이내,서울특별시,종로구,가로변버스정류소,서울특별시 종로구 금연환경조성 및 간접흡연 피해방지 조례,,100000,02-2148-3544,서울특별시 종로구 평창문화로 119,,서울특별시 종로구청,37.6089877,126.9729911,2021-07-12
평창동삼성아파트,버스정류소 승차대 또는 표지판 경계로부터 10m이내,서울특별시,종로구,가로변버스정류소,서울특별시 종로구 금연환경조성 및 간접흡연 피해방지 조례,,100000,02-2148-3544,서울특별시 종로구 평창문화로 172,,서울특별시 종로구청,37.610798,126.9784132,2021-07-12
평창동주민센터,버스정류소 승차대 또는 표지판 경계로부터 10m이내,서울특별시,종로구,가로변버스정류소,서울특별시 종로구 금연환경조성 및 간접흡연 피해방지 조례,,100000,02-2148-3544,서울특별시 종로구 평창문화로 75,,서울특별시 종로구청,37.60686399,126.9690054,2021-07-12
평창파출소,버스정류소 승차대 또는 표지판 경계로부터 10m이내,서울특별시,종로구,가로변버스정류소,서울특별시 종로구 금연환경조성 및 간접흡연 피해방지 조례,,100000,02-2148-3544,서울특별시 종로구 평창문화로 43-1,,서울특별시 종로구청,37.60544323,126.9661159,2021-07-12
화정박물관,버스정류소 승차대 또는 표지판 경계로부터 10m이내,서울특별시,종로구,가로변버스정류소,서울특별시 종로구 금연환경조성 및 간접흡연 피해방지 조례,,100000,02-2148-3544,서울특별시 종로구 평창문화로 28,,서울특별시 종로구청,37.60450012,126.9647256,2021-07-12
명륜동2가.성균관대입구,버스정류소 승차대 또는 표지판 경계로부터 10m이내,서울특별시,종로구,가로변버스정류소,서울특별시 종로구 금연환경조성 및 간접흡연 피해방지 조례,,100000,02-2148-3544,서울특별시 종로구 창경궁로 248,,서울특별시 종로구청,37.58347831,126.9995698,2021-07-12
혜화동로터리,버스정류소 승차대 또는 표지판 경계로부터 10m이내,서울특별시,종로구,가로변버스정류소,서울특별시 종로구 금연환경조성 및 간접흡연 피해방지 조례,,100000,02-2148-3544,서울특별시 종로구 창경궁로 271-1,,서울특별시 종로구청,37.585571,127.0006023,2021-07-12
"혜화역,동성중고(장면총리가옥)",버스정류소 승차대 또는 표지판 경계로부터 10m이내,서울특별시,종로구,가로변버스정류소,서울특별시 종로구 금연환경조성 및 간접흡연 피해방지 조례,,100000,02-2148-3544,서울특별시 종로구 대학로 156,,서울특별시 종로구청,37.58497032,127.0030976,2021-07-12
"혜화역,서울연극센터(장면총리가옥)",버스정류소 승차대 또는 표지판 경계로부터 10m이내,서울특별시,종로구,가로변버스정류소,서울특별시 종로구 금연환경조성 및 간접흡연 피해방지 조례,,100000,02-2148-3544,서울특별시 종로구 대학로 143,,서울특별시 종로구청,37.58403332,127.0013088,2021-07-12