금연구역명,금연구역범위상세,시도명,시군구명,금연구역구분,금연구역지정근거명,금연구역면적,위반과태료,위반신고전화번호,소재지도로명주소,소재지지번주소,관리기관명,위도,경도,데이터기준일자
KTDS서초어린이집,건축물 경계선 반경 10m이내의 도로법에 의한 보도 및 차도,서울특별시,서초구,어린이집,서초구 간접흡연피해방지 조례 제5조(서초구 고시 제2012-91호),10,100000,02-2155-8176,서울특별시 서초구 효령로 176(방배동),서울특별시 서초구 방배동 1001-1,서초구보건소 건강정책과,37.4821697,127.0036406,2021-10-14
KT연구개발센터꿈나무어린이집,건축물 경계선 반경 10m이내의 도로법에 의한 보도 및 차도,서울특별시,서초구,어린이집,서초구 간접흡연피해방지 조례 제5조(서초구 고시 제2012-91호),10,100000,02-2155-8176,서울특별시 서초구 태봉로 151(우면동),서울특별시 서초구 우면동 17,서초구보건소 건강정책과,37.47131074,127.0293604,2021-10-14
LG전자강남센터어린이집,건축물 경계선 반경 10m이내의 도로법에 의한 보도 및 차도,서울특별시,서초구,어린이집,서초구 간접흡연피해방지 조례 제5조(서초구 고시 제2012-91호),10,100000,02-2155-8176,서울특별시 서초구 강남대로37길 43(서초동),서울특별시 서초구 서초동 1365-8,서초구보건소 건강정책과,37.48465966,127.0310707,2021-10-14
가나안샘터어린이집,건축물 경계선 반경 10m이내의 도로법에 의한 보도 및 차도,서울특별시,서초구,어린이집,서초구 간접흡연피해방지 조례 제5조(서초구 고시 제2012-91호),10,100000,02-2155-8176,"서울특별시 서초구 주흥17길 19 101호(반포동, 써니힐아파트 )",서울특별시 서초구 반포동 701-31,서초구보건소 건강정책과,37.50910854,127.0175989,2021-10-14
경기 몬테소리어린이집,건축물 경계선 반경 10m이내의 도로법에 의한 보도 및 차도,서울특별시,서초구,어린이집,서초구 간접흡연피해방지 조례 제5조(서초구 고시 제2012-91호),10,100000,02-2155-8176,서울특별시 서초구 서리풀4길 15-5 (서초동),서울특별시 서초구 서초동 1613-19,서초구보건소 건강정책과,37.48835235,127.0213344,2021-10-14
고은아이어린이집,건축물 경계선 반경 10m이내의 도로법에 의한 보도 및 차도,서울특별시,서초구,어린이집,서초구 간접흡연피해방지 조례 제5조(서초구 고시 제2012-91호),10,100000,02-2155-8176,"서울특별시 서초구 신반포로33길 15 105동 101호(잠원동, 동아아파트)",서울특별시 서초구 잠원동 157,서초구보건소 건강정책과,37.5090446,127.0095233,2021-10-14
구립서초사랑어린이집,건축물 경계선 반경 10m이내의 도로법에 의한 보도 및 차도,서울특별시,서초구,어린이집,서초구 간접흡연피해방지 조례 제5조(서초구 고시 제2012-91호),10,100000,02-2155-8176,서울특별시 서초구 잠원로 213-3(잠원동),서울특별시 서초구 잠원동 49-25,서초구보건소 건강정책과,37.52055888,127.0148324,2021-10-14
국립중앙도서관책사랑어린이집,건축물 경계선 반경 10m이내의 도로법에 의한 보도 및 차도,서울특별시,서초구,어린이집,서초구 간접흡연피해방지 조례 제5조(서초구 고시 제2012-91호),10,100000,02-2155-8176,서울특별시 서초구 반포대로 201 국립중앙도서관(반포동),서울특별시 서초구 반포동 산60-1,서초구보건소 건강정책과,37.49742197,127.0032297,2021-10-14
근하어린이집,건축물 경계선 반경 10m이내의 도로법에 의한 보도 및 차도,서울특별시,서초구,어린이집,서초구 간접흡연피해방지 조례 제5조(서초구 고시 제2012-91호),10,100000,02-2155-8176,서울특별시 서초구 언남9길 7-11(양재동),서울특별시 서초구 양재동 255-2,서초구보건소 건강정책과,37.47331784,127.0423754,2021-10-14
기쁜어린이집,건축물 경계선 반경 10m이내의 도로법에 의한 보도 및 차도,서울특별시,서초구,어린이집,서초구 간접흡연피해방지 조례 제5조(서초구 고시 제2012-91호),10,100000,02-2155-8176,서울특별시 서초구 바우뫼로9길 22-8(우면동),서울특별시 서초구 우면동 50-5,서초구보건소 건강정책과,37.47259807,127.0264533,2021-10-14
까리따스어린이집,건축물 경계선 반경 10m이내의 도로법에 의한 보도 및 차도,서울특별시,서초구,어린이집,서초구 간접흡연피해방지 조례 제5조(서초구 고시 제2012-91호),10,100000,02-2155-8176,서울특별시 서초구 남부순환로 2124(방배동),서울특별시 서초구 방배동 3274,서초구보건소 건강정책과,37.47498587,126.9843762,2021-10-14
꼬마숲바른i어린이집,건축물 경계선 반경 10m이내의 도로법에 의한 보도 및 차도,서울특별시,서초구,어린이집,서초구 간접흡연피해방지 조례 제5조(서초구 고시 제2012-91호),10,100000,02-2155-8176,"서울특별시 서초구 양재대로2길 90 208동 105호(우면동, LH스타힐스)",서울특별시 서초구 우면동 773,서초구보건소 건강정책과,37.45760689,127.0175687,2021-10-14
꿈꾸는새싹어린이집,건축물 경계선 반경 10m이내의 도로법에 의한 보도 및 차도,서울특별시,서초구,어린이집,서초구 간접흡연피해방지 조례 제5조(서초구 고시 제2012-91호),10,100000,02-2155-8176,"서울특별시 서초구 방배선행길 1 108동101호(방배동,우성아파트)",서울특별시 서초구 방배동 2525,서초구보건소 건강정책과,37.47500718,126.9821559,2021-10-14
꿈터어린이집,건축물 경계선 반경 10m이내의 도로법에 의한 보도 및 차도,서울특별시,서초구,어린이집,서초구 간접흡연피해방지 조례 제5조(서초구 고시 제2012-91호),10,100000,02-2155-8176,"서울특별시 서초구 바우뫼로 91 101동 101호(양재동, 양재우성아파트)",서울특별시 서초구 양재동 154-2,서초구보건소 건강정책과,37.47504047,127.031799,2021-10-14
나래어린이집,건축물 경계선 반경 10m이내의 도로법에 의한 보도 및 차도,서울특별시,서초구,어린이집,서초구 간접흡연피해방지 조례 제5조(서초구 고시 제2012-91호),10,100000,02-2155-8176,"서울특별시 서초구 양재대로2길 33(우면동, 엘에이치서초4단지)",서울특별시 서초구 우면동 788,서초구보건소 건강정책과,37.45820762,127.0240973,2021-10-14
남서울교회어린이집,건축물 경계선 반경 10m이내의 도로법에 의한 보도 및 차도,서울특별시,서초구,어린이집,서초구 간접흡연피해방지 조례 제5조(서초구 고시 제2012-91호),10,100000,02-2155-8176,서울특별시 서초구 신반포로 131(반포동),서울특별시 서초구 반포동 1-24,서초구보건소 건강정책과,37.5044967,126.9985478,2021-10-14
남태령어린이집,건축물 경계선 반경 10m이내의 도로법에 의한 보도 및 차도,서울특별시,서초구,어린이집,서초구 간접흡연피해방지 조례 제5조(서초구 고시 제2012-91호),10,100000,02-2155-8176,서울특별시 서초구 전원말길 6(방배동),서울특별시 서초구 방배동 2877,서초구보건소 건강정책과,37.46589698,126.9887866,2021-10-14
내곡어린이집,건축물 경계선 반경 10m이내의 도로법에 의한 보도 및 차도,서울특별시,서초구,어린이집,서초구 간접흡연피해방지 조례 제5조(서초구 고시 제2012-91호),10,100000,02-2155-8176,서울특별시 서초구 홍씨마을길 25(내곡동),서울특별시 서초구 내곡동 156-4,서초구보건소 건강정책과,37.45319672,127.0654742,2021-10-14
늘사랑어린이집,건축물 경계선 반경 10m이내의 도로법에 의한 보도 및 차도,서울특별시,서초구,어린이집,서초구 간접흡연피해방지 조례 제5조(서초구 고시 제2012-91호),10,100000,02-2155-8176,"서울특별시 서초구 신반포로19길 10 22동 103호(반포동, 신반포한신아파트)",서울특별시 서초구 반포동 1-1,서초구보건소 건강정책과,37.50839982,,2021-10-14
늘푸른아이들어린이집,건축물 경계선 반경 10m이내의 도로법에 의한 보도 및 차도,서울특별시,서초구,어린이집,서초구 간접흡연피해방지 조례 제5조(서초구 고시 제2012-91호),10,100000,02-2155-8176,"서울특별시 서초구 신반포로15길 4 101동 101호(반포동, 반포대우아파트)",서울특별시 서초구 반포동 10,서초구보건소 건강정책과,37.50414349,126.9974531,2021-10-14
늘푸른어린이집,건축물 경계선 반경 10m이내의 도로법에 의한 보도 및 차도,서울특별시,서초구,어린이집,서초구 간접흡연피해방지 조례 제5조(서초구 고시 제2012-91호),10,100000,02-2155-8176,"서울특별시 서초구 신반포로33길 64 2동 101호(잠원동, 잠원한신로얄아파트)",서울특별시 서초구 잠원동 63-34,서초구보건소 건강정책과,37.51331182,127.0086868,2021-10-14
니꼴라오어린이집,건축물 경계선 반경 10m이내의 도로법에 의한 보도 및 차도,서울특별시,서초구,어린이집,서초구 간접흡연피해방지 조례 제5조(서초구 고시 제2012-91호),10,100000,02-2155-8176,서울특별시 서초구 논현로5길 28(양재동),서울특별시 서초구 양재동 396-2,서초구보건소 건강정책과,37.47206501,127.0481854,2021-10-14
다솜어린이집,건축물 경계선 반경 10m이내의 도로법에 의한 보도 및 차도,서울특별시,서초구,어린이집,서초구 간접흡연피해방지 조례 제5조(서초구 고시 제2012-91호),10,100000,02-2155-8176,서울특별시 서초구 반포대로 180(서초동),서울특별시 서초구 서초동 1724,서초구보건소 건강정책과,37.49583968,127.0061563,2021-10-14
도담도담어린이집,건축물 경계선 반경 10m이내의 도로법에 의한 보도 및 차도,서울특별시,서초구,어린이집,서초구 간접흡연피해방지 조례 제5조(서초구 고시 제2012-91호),10,100000,02-2155-8176,"서울특별시 서초구 헌릉로8길 45 203동 101호 (내곡동, 서초포레스타2단지)",서울특별시 서초구 내곡동 143,서초구보건소 건강정책과,37.45469039,127.062546,2021-10-14
도담어린이집,건축물 경계선 반경 10m이내의 도로법에 의한 보도 및 차도,서울특별시,서초구,어린이집,서초구 간접흡연피해방지 조례 제5조(서초구 고시 제2012-91호),10,100000,02-2155-8176,"서울특별시 서초구 태봉로2길 65(우면동, 서초네이처힐4단지)",서울특별시 서초구 우면동 720,서초구보건소 건강정책과,37.46412511,127.0257857,2021-10-14
도레미어린이집,건축물 경계선 반경 10m이내의 도로법에 의한 보도 및 차도,서울특별시,서초구,어린이집,서초구 간접흡연피해방지 조례 제5조(서초구 고시 제2012-91호),10,100000,02-2155-8176,서울특별시 서초구 효령로8길 24(방배동),서울특별시 서초구 방배동 476-22,서초구보건소 건강정책과,37.47702985,126.9886888,2021-10-14
동아어린이집,건축물 경계선 반경 10m이내의 도로법에 의한 보도 및 차도,서울특별시,서초구,어린이집,서초구 간접흡연피해방지 조례 제5조(서초구 고시 제2012-91호),10,100000,02-2155-8176,"서울특별시 서초구 신반포로33길 15 103동 103호(잠원동, 동아아파트)",서울특별시 서초구 잠원동 157,서초구보건소 건강정책과,37.5090446,127.0095233,2021-10-14
드림빅스맘어린이집,건축물 경계선 반경 10m이내의 도로법에 의한 보도 및 차도,서울특별시,서초구,어린이집,서초구 간접흡연피해방지 조례 제5조(서초구 고시 제2012-91호),10,100000,02-2155-8176,"서울특별시 서초구 태봉로2길 60 308동 104호(우면동, 서초네이처힐3단지)",서울특별시 서초구 우면동 717,서초구보건소 건강정책과,37.46565291,127.0271833,2021-10-14
또래어린이집,건축물 경계선 반경 10m이내의 도로법에 의한 보도 및 차도,서울특별시,서초구,어린이집,서초구 간접흡연피해방지 조례 제5조(서초구 고시 제2012-91호),10,100000,02-2155-8176,"서울특별시 서초구 신반포로33길 15 101동 105호(잠원동, 동아아파트)",서울특별시 서초구 잠원동 157,서초구보건소 건강정책과,37.5090446,127.0095233,2021-10-14
라라라어린이집,건축물 경계선 반경 10m이내의 도로법에 의한 보도 및 차도,서울특별시,서초구,어린이집,서초구 간접흡연피해방지 조례 제5조(서초구 고시 제2012-91호),10,100000,02-2155-8176,"서울특별시 서초구 양재대로2길 11 502동 104호(우면동, 엘에이치서초5단지)",서울특별시 서초구 우면동 789,서초구보건소 건강정책과,37.45912995,127.0255398,2021-10-14
락앤락샛별어린이집,건축물 경계선 반경 10m이내의 도로법에 의한 보도 및 차도,서울특별시,서초구,어린이집,서초구 간접흡연피해방지 조례 제5조(서초구 고시 제2012-91호),5,100000,02-2155-8176,서울특별시 서초구 서리풀3길 21(서초동),서울특별시 서초구 서초동 1618-2,서초구보건소 건강정책과,37.48766808,127.0183537,2021-10-14
롯데건설어린이집,건축물 경계선 반경 10m이내의 도로법에 의한 보도 및 차도,서울특별시,서초구,어린이집,서초구 간접흡연피해방지 조례 제5조(서초구 고시 제2012-91호),10,100000,02-2155-8176,서울특별시 서초구 강남대로101안길 33(잠원동),서울특별시 서초구 잠원동 15-3,서초구보건소 건강정책과,37.5158157,127.0170394,2021-10-14
리체꿈나라 어린이집,건축물 경계선 반경 10m이내의 도로법에 의한 보도 및 차도,서울특별시,서초구,어린이집,서초구 간접흡연피해방지 조례 제5조(서초구 고시 제2012-91호),10,100000,02-2155-8176,서울특별시 서초구 고무래로 35(반포동),서울특별시 서초구 반포동 30-26,서초구보건소 건강정책과,37.50446722,127.0124542,2021-10-14
리틀밥어린이집,건축물 경계선 반경 10m이내의 도로법에 의한 보도 및 차도,서울특별시,서초구,어린이집,서초구 간접흡연피해방지 조례 제5조(서초구 고시 제2012-91호),10,100000,02-2155-8176,"서울특별시 서초구 신반포로23길 41 105동 110호(잠원동, 신반포한신아파트)",서울특별시 서초구 잠원동 73,서초구보건소 건강정책과,37.51165781,127.0044694,2021-10-14
미소담은어린이집,건축물 경계선 반경 10m이내의 도로법에 의한 보도 및 차도,서울특별시,서초구,어린이집,서초구 간접흡연피해방지 조례 제5조(서초구 고시 제2012-91호),10,100000,02-2155-8176,"서울특별시 서초구 바우뫼로 89 105동 105호(양재동, 우성아파트)",서울특별시 서초구 양재동 154-2,서초구보건소 건강정책과,37.47504047,127.031799,2021-10-14
바로미어린이집,건축물 경계선 반경 10m이내의 도로법에 의한 보도 및 차도,서울특별시,서초구,어린이집,서초구 간접흡연피해방지 조례 제5조(서초구 고시 제2012-91호),10,100000,02-2155-8176,서울특별시 서초구 서초중앙로 157 서울법원종합청사별관 (서초동),서울특별시 서초구 서초동 1701-1,서초구보건소 건강정책과,37.49827564,127.0111232,2021-10-14
바름이어린이집,건축물 경계선 반경 10m이내의 도로법에 의한 보도 및 차도,서울특별시,서초구,어린이집,서초구 간접흡연피해방지 조례 제5조(서초구 고시 제2012-91호),10,100000,02-2155-8176,서울특별시 서초구 서초대로45길 20(서초동),서울특별시 서초구 서초동 1706-4,서초구보건소 건강정책과,37.49414561,127.008965,2021-10-14
반포1동어린이집,건축물 경계선 반경 10m이내의 도로법에 의한 보도 및 차도,서울특별시,서초구,어린이집,서초구 간접흡연피해방지 조례 제5조(서초구 고시 제2012-91호),10,100000,02-2155-8176,서울특별시 서초구 신반포로 318(반포동),서울특별시 서초구 반포동 703-1,서초구보건소 건강정책과,37.51000049,127.0184813,2021-10-14
반포복지관어린이집,건축물 경계선 반경 10m이내의 도로법에 의한 보도 및 차도,서울특별시,서초구,어린이집,서초구 간접흡연피해방지 조례 제5조(서초구 고시 제2012-91호),10,100000,02-2155-8176,서울특별시 서초구 사평대로55길 90(반포동),서울특별시 서초구 반포동 724-12,서초구보건소 건강정책과,37.5078779,127.0212379,2021-10-14
반포어린이집,건축물 경계선 반경 10m이내의 도로법에 의한 보도 및 차도,서울특별시,서초구,어린이집,서초구 간접흡연피해방지 조례 제5조(서초구 고시 제2012-91호),10,100000,02-2155-8176,서울특별시 서초구 사평대로20길 54(반포동),서울특별시 서초구 반포동 107-87,서초구보건소 건강정책과,37.49702913,126.9967386,2021-10-14
반포예원어린이집,건축물 경계선 반경 10m이내의 도로법에 의한 보도 및 차도,서울특별시,서초구,어린이집,서초구 간접흡연피해방지 조례 제5조(서초구 고시 제2012-91호),10,100000,02-2155-8176,"서울특별시 서초구 사평대로 240 502동 104호(반포동, 미도2차아파트)",서울특별시 서초구 반포동 60-5,서초구보건소 건강정책과,37.50288909,127.0073194,2021-10-14
반포자이어린이집,건축물 경계선 반경 10m이내의 도로법에 의한 보도 및 차도,서울특별시,서초구,어린이집,서초구 간접흡연피해방지 조례 제5조(서초구 고시 제2012-91호),10,100000,02-2155-8176,"서울특별시 서초구 신반포로 270 129동 103호(반포동, 반포자이아파트)",서울특별시 서초구 반포동 20-43,서초구보건소 건강정책과,37.50785869,127.0115816,2021-10-14
반포퍼스티지 하늘어린이집,건축물 경계선 반경 10m이내의 도로법에 의한 보도 및 차도,서울특별시,서초구,어린이집,서초구 간접흡연피해방지 조례 제5조(서초구 고시 제2012-91호),10,100000,02-2155-8176,서울특별시 서초구 반포대로 275(반포동),서울특별시 서초구 반포동 18-1,서초구보건소 건강정책과,37.50239189,126.9959648,2021-10-14
반포퍼스티지솔마을 어린이집,건축물 경계선 반경 10m이내의 도로법에 의한 보도 및 차도,서울특별시,서초구,어린이집,서초구 간접흡연피해방지 조례 제5조(서초구 고시 제2012-91호),10,100000,02-2155-8176,"서울특별시 서초구 반포대로 275(반포동, 래미안퍼스티지아파트)",서울특별시 서초구 반포동 18-1,서초구보건소 건강정책과,37.50239189,126.9959648,2021-10-14
방배본동 행복한 어린이집,건축물 경계선 반경 10m이내의 도로법에 의한 보도 및 차도,서울특별시,서초구,어린이집,서초구 간접흡연피해방지 조례 제5조(서초구 고시 제2012-91호),10,100000,02-2155-8176,서울특별시 서초구 동광로11길 86(방배동),서울특별시 서초구 방배동 768-5,서초구보건소 건강정책과,37.49501003,126.9854984,2021-10-14
방배안데르센어린이집,건축물 경계선 반경 10m이내의 도로법에 의한 보도 및 차도,서울특별시,서초구,어린이집,서초구 간접흡연피해방지 조례 제5조(서초구 고시 제2012-91호),10,100000,02-2155-8176,"서울특별시 서초구 과천대로 946 105동 105호(방배동, 방배우성아파트)",서울특별시 서초구 방배동 2525,서초구보건소 건강정책과,37.47500718,126.9821559,2021-10-14
방배어린이집,건축물 경계선 반경 10m이내의 도로법에 의한 보도 및 차도,서울특별시,서초구,어린이집,서초구 간접흡연피해방지 조례 제5조(서초구 고시 제2012-91호),10,100000,02-2155-8176,서울특별시 서초구 방배로19길 36-8(방배동),서울특별시 서초구 방배동 321-10,서초구보건소 건강정책과,37.48509242,126.9930667,2021-10-14
방배하나어린이집,건축물 경계선 반경 10m이내의 도로법에 의한 보도 및 차도,서울특별시,서초구,어린이집,서초구 간접흡연피해방지 조례 제5조(서초구 고시 제2012-91호),10,100000,02-2155-8176,서울특별시 서초구 서초대로14길 28(방배동),서울특별시 서초구 방배동 962-34,서초구보건소 건강정책과,37.48448672,126.9899145,2021-10-14
베베어린이집,건축물 경계선 반경 10m이내의 도로법에 의한 보도 및 차도,서울특별시,서초구,어린이집,서초구 간접흡연피해방지 조례 제5조(서초구 고시 제2012-91호),10,100000,02-2155-8176,"서울특별시 서초구 잠원로4길 34-11 101동 101호(잠원동, 녹원한신아파트)",서울특별시 서초구 잠원동 60-7,서초구보건소 건강정책과,37.51221956,127.0115325,2021-10-14
별어린이집,건축물 경계선 반경 10m이내의 도로법에 의한 보도 및 차도,서울특별시,서초구,어린이집,서초구 간접흡연피해방지 조례 제5조(서초구 고시 제2012-91호),10,100000,02-2155-8176,"서울특별시 서초구 사임당로 130 5동 108호(서초동, 신동아아파트)",서울특별시 서초구 서초동 1334,서초구보건소 건강정책과,37.49162785,127.0242301,2021-10-14
별하어린이집,건축물 경계선 반경 10m이내의 도로법에 의한 보도 및 차도,서울특별시,서초구,어린이집,서초구 간접흡연피해방지 조례 제5조(서초구 고시 제2012-91호),10,100000,02-2155-8176,"서울특별시 서초구 태봉로2길 30 607동 102호(우면동, 서초네이처힐6단지)",서울특별시 서초구 우면동 737,서초구보건소 건강정책과,37.4611518,127.025649,2021-10-14
봄꽃나라어린이집,건축물 경계선 반경 10m이내의 도로법에 의한 보도 및 차도,서울특별시,서초구,어린이집,서초구 간접흡연피해방지 조례 제5조(서초구 고시 제2012-91호),10,100000,02-2155-8176,"서울특별시 서초구 잠원로14길 41 324동106호(잠원동,신반포한신아파트)",서울특별시 서초구 잠원동 50-5,서초구보건소 건강정책과,37.51649721,127.0143746,2021-10-14
사랑의어린이집,건축물 경계선 반경 10m이내의 도로법에 의한 보도 및 차도,서울특별시,서초구,어린이집,서초구 간접흡연피해방지 조례 제5조(서초구 고시 제2012-91호),10,100000,02-2155-8176,서울특별시 서초구 신반포로33길 22(잠원동),서울특별시 서초구 잠원동 60-5,서초구보건소 건강정책과,37.50995268,127.0109938,2021-10-14
산성몬테소리어린이집,건축물 경계선 반경 10m이내의 도로법에 의한 보도 및 차도,서울특별시,서초구,어린이집,서초구 간접흡연피해방지 조례 제5조(서초구 고시 제2012-91호),10,100000,02-2155-8176,서울특별시 서초구 사평대로 253(반포동),서울특별시 서초구 반포동 20-15,서초구보건소 건강정책과,37.50524943,127.0110383,2021-10-14
삼성전자서울R&D캠퍼스어린이집,건축물 경계선 반경 10m이내의 도로법에 의한 보도 및 차도,서울특별시,서초구,어린이집,서초구 간접흡연피해방지 조례 제5조(서초구 고시 제2012-91호),10,100000,02-2155-8176,서울특별시 서초구 성촌길 67(우면동),서울특별시 서초구 우면동 685,서초구보건소 건강정책과,37.46571539,127.0212602,2021-10-14
새롬키즈어린이집,건축물 경계선 반경 10m이내의 도로법에 의한 보도 및 차도,서울특별시,서초구,어린이집,서초구 간접흡연피해방지 조례 제5조(서초구 고시 제2012-91호),10,100000,02-2155-8176,서울특별시 서초구 서초대로6길 46(방배동),서울특별시 서초구 방배동 958-20,서초구보건소 건강정책과,37.483153,126.9876217,2021-10-14
새싹빅스맘어린이집,건축물 경계선 반경 10m이내의 도로법에 의한 보도 및 차도,서울특별시,서초구,어린이집,서초구 간접흡연피해방지 조례 제5조(서초구 고시 제2012-91호),10,100000,02-2155-8176,"서울특별시 서초구 형촌길 15 208동 101호(우면동, 서초네이처힐아파트)",서울특별시 서초구 우면동 712,서초구보건소 건강정책과,37.46329893,127.021463,2021-10-14
새싹어린이집,건축물 경계선 반경 10m이내의 도로법에 의한 보도 및 차도,서울특별시,서초구,어린이집,서초구 간접흡연피해방지 조례 제5조(서초구 고시 제2012-91호),10,100000,02-2155-8176,"서울특별시 서초구 잠원로 37-48 203동 104호(잠원동,신반포4차 아파트)",서울특별시 서초구 잠원동 73,서초구보건소 건강정책과,37.51165781,127.0044694,2021-10-14
샤이닝키즈어린이집,건축물 경계선 반경 10m이내의 도로법에 의한 보도 및 차도,서울특별시,서초구,어린이집,서초구 간접흡연피해방지 조례 제5조(서초구 고시 제2012-91호),10,100000,02-2155-8176,서울특별시 서초구 서초대로74길 30 (서초동),서울특별시 서초구 서초동 1326-17,서초구보건소 건강정책과,37.49509077,127.026805,2021-10-14
서울발트킨더어린이집,건축물 경계선 반경 10m이내의 도로법에 의한 보도 및 차도,서울특별시,서초구,어린이집,서초구 간접흡연피해방지 조례 제5조(서초구 고시 제2012-91호),10,100000,02-2155-8176,"서울특별시 서초구 헌릉로8길 10-12 107동(신원동, 힐스테이트서초젠트리스)",서울특별시 서초구 신원동 412-5,서초구보건소 건강정책과,37.45594694,127.0579402,2021-10-14
서울성모병원어린이집,건축물 경계선 반경 10m이내의 도로법에 의한 보도 및 차도,서울특별시,서초구,어린이집,서초구 간접흡연피해방지 조례 제5조(서초구 고시 제2012-91호),10,100000,02-2155-8176,서울특별시 서초구 반포대로 222(반포동),서울특별시 서초구 반포동 505,서초구보건소 건강정책과,37.50239362,127.0058443,2021-10-14
서울시인재개발원 쑥쑥어린이집,건축물 경계선 반경 10m이내의 도로법에 의한 보도 및 차도,서울특별시,서초구,어린이집,서초구 간접흡연피해방지 조례 제5조(서초구 고시 제2012-91호),10,100000,02-2155-8176,서울특별시 서초구 남부순환로340길 58(서초동),서울특별시 서초구 서초동 391,서초구보건소 건강정책과,37.48119434,127.0234353,2021-10-14
서정어린이집,건축물 경계선 반경 10m이내의 도로법에 의한 보도 및 차도,서울특별시,서초구,어린이집,서초구 간접흡연피해방지 조례 제5조(서초구 고시 제2012-91호),10,100000,02-2155-8176,서울특별시 서초구 방배천로 48(방배동),서울특별시 서초구 방배동 455-11,서초구보건소 건강정책과,37.48076653,126.9827876,2021-10-14
서초1삼성어린이집,건축물 경계선 반경 10m이내의 도로법에 의한 보도 및 차도,서울특별시,서초구,어린이집,서초구 간접흡연피해방지 조례 제5조(서초구 고시 제2012-91호),10,100000,02-2155-8176,서울특별시 서초구 서초대로74길 11(서초동),서울특별시 서초구 서초동 1320-10,서초구보건소 건강정책과,37.49663327,127.0269141,2021-10-14
서초2삼성어린이집,건축물 경계선 반경 10m이내의 도로법에 의한 보도 및 차도,서울특별시,서초구,어린이집,서초구 간접흡연피해방지 조례 제5조(서초구 고시 제2012-91호),10,100000,02-2155-8176,서울특별시 서초구 서초대로74길 14(서초동),서울특별시 서초구 서초동 1321-20,서초구보건소 건강정책과,37.49595949,127.0261223,2021-10-14
서초구 육아종합지원센터,건축물 경계선 반경 10m이내의 도로법에 의한 보도 및 차도,서울특별시,서초구,어린이집,서초구 간접흡연피해방지 조례 제5조(서초구 고시 제2012-91호),10,100000,02-2155-8176,서울특별시 서초구 남부순환로347길 46(서초동),서울특별시 서초구 서초동 1360-26,서초구보건소 건강정책과,37.48642194,127.0314197,2021-10-14
서초구립 내곡연두어린이집,건축물 경계선 반경 10m이내의 도로법에 의한 보도 및 차도,서울특별시,서초구,어린이집,서초구 간접흡연피해방지 조례 제5조(서초구 고시 제2012-91호),10,100000,02-2155-8176,서울특별시 서초구 헌릉로 226(내곡동),서울특별시 서초구 내곡동 184-1,서초구보건소 건강정책과,37.4549486,127.0649242,2021-10-14
서초구립 느티나무어린이집,건축물 경계선 반경 10m이내의 도로법에 의한 보도 및 차도,서울특별시,서초구,어린이집,서초구 간접흡연피해방지 조례 제5조(서초구 고시 제2012-91호),10,100000,02-2155-8176,서울특별시 서초구 사임당로19길 126(서초동),서울특별시 서초구 서초동 1643-44,서초구보건소 건강정책과,37.49232424,127.0199063,2021-10-14
서초구립 도구머리어린이집,건축물 경계선 반경 10m이내의 도로법에 의한 보도 및 차도,서울특별시,서초구,어린이집,서초구 간접흡연피해방지 조례 제5조(서초구 고시 제2012-91호),10,100000,02-2155-8176,서울특별시 서초구 청두곶2길 33(방배동),서울특별시 서초구 방배동 산75-3,서초구보건소 건강정책과,37.47862269,126.9871929,2021-10-14
서초구립 래미안서초에스티지S어린이집,건축물 경계선 반경 10m이내의 도로법에 의한 보도 및 차도,서울특별시,서초구,어린이집,서초구 간접흡연피해방지 조례 제5조(서초구 고시 제2012-91호),10,100000,02-2155-8176,서울특별시 서초구 서운로 104(서초동),서울특별시 서초구 서초동 1331,서초구보건소 건강정책과,37.4934156,127.0264914,2021-10-14
서초구립 리본타워2단지어린이집,건축물 경계선 반경 10m이내의 도로법에 의한 보도 및 차도,서울특별시,서초구,어린이집,서초구 간접흡연피해방지 조례 제5조(서초구 고시 제2012-91호),10,100000,02-2155-8176,"서울특별시 서초구 매헌로16길 40(양재동, 양재리본타워2단지)",서울특별시 서초구 양재동 212,서초구보건소 건강정책과,37.46492969,127.0361718,2021-10-14
서초구립 리본타워어린이집,건축물 경계선 반경 10m이내의 도로법에 의한 보도 및 차도,서울특별시,서초구,어린이집,서초구 간접흡연피해방지 조례 제5조(서초구 고시 제2012-91호),10,100000,02-2155-8176,"서울특별시 서초구 바우뫼로18길 20 101동(양재동, 양재리본타워1단지)",서울특별시 서초구 양재동 102,서초구보건소 건강정책과,37.47288858,127.0321465,2021-10-14
서초구립 반포1동주민센터어린이집,건축물 경계선 반경 10m이내의 도로법에 의한 보도 및 차도,서울특별시,서초구,어린이집,서초구 간접흡연피해방지 조례 제5조(서초구 고시 제2012-91호),10,100000,02-2155-8176,서울특별시 서초구 사평대로 273(반포동),서울특별시 서초구 반포동 20-48,서초구보건소 건강정책과,37.50509422,127.0133771,2021-10-14
서초구립 반포단비어린이집,건축물 경계선 반경 10m이내의 도로법에 의한 보도 및 차도,서울특별시,서초구,어린이집,서초구 간접흡연피해방지 조례 제5조(서초구 고시 제2012-91호),10,100000,02-2155-8176,서울특별시 서초구 주흥13길 12(반포동),서울특별시 서초구 반포동 711-11,서초구보건소 건강정책과,37.50867952,127.0185488,2021-10-14
서초구립 반포미도어린이집,건축물 경계선 반경 10m이내의 도로법에 의한 보도 및 차도,서울특별시,서초구,어린이집,서초구 간접흡연피해방지 조례 제5조(서초구 고시 제2012-91호),10,100000,02-2155-8176,"서울특별시 서초구 서초중앙로29길 28 303동 108호(반포동, 반포미도아파트)",서울특별시 서초구 반포동 60-4,서초구보건소 건강정책과,37.49997334,127.0087079,2021-10-14
서초구립 반포본동초롱어린이집,건축물 경계선 반경 10m이내의 도로법에 의한 보도 및 차도,서울특별시,서초구,어린이집,서초구 간접흡연피해방지 조례 제5조(서초구 고시 제2012-91호),10,100000,02-2155-8176,"서울특별시 서초구 신반포로 9 85동 103호(반포동, 반포아파트)",서울특별시 서초구 반포동 821,서초구보건소 건강정책과,37.50159101,126.9857685,2021-10-14
서초구립 반포본동푸른어린이집,건축물 경계선 반경 10m이내의 도로법에 의한 보도 및 차도,서울특별시,서초구,어린이집,서초구 간접흡연피해방지 조례 제5조(서초구 고시 제2012-91호),10,100000,02-2155-8176,"서울특별시 서초구 신반포로 45 66동 102호(반포동, 반포아파트)",서울특별시 서초구 반포동 758,서초구보건소 건강정책과,37.50528188,126.9890702,2021-10-14
서초구립 방배1동초록꿈어린이집,건축물 경계선 반경 10m이내의 도로법에 의한 보도 및 차도,서울특별시,서초구,어린이집,서초구 간접흡연피해방지 조례 제5조(서초구 고시 제2012-91호),10,100000,02-2155-8176,서울특별시 서초구 효령로23길 16(방배동),서울특별시 서초구 방배동 916-7,서초구보건소 건강정책과,37.48116407,126.9939761,2021-10-14
서초구립 방배4동어린이집,건축물 경계선 반경 10m이내의 도로법에 의한 보도 및 차도,서울특별시,서초구,어린이집,서초구 간접흡연피해방지 조례 제5조(서초구 고시 제2012-91호),10,100000,02-2155-8176,서울특별시 서초구 서초대로19길 16(방배동),서울특별시 서초구 방배동 873-4,서초구보건소 건강정책과,37.48782776,126.9912619,2021-10-14
서초구립 방배본동신나는어린이집,건축물 경계선 반경 10m이내의 도로법에 의한 보도 및 차도,서울특별시,서초구,어린이집,서초구 간접흡연피해방지 조례 제5조(서초구 고시 제2012-91호),10,100000,02-2155-8176,서울특별시 서초구 동광로11길 23(방배동),서울특별시 서초구 방배동 789-18,서초구보건소 건강정책과,37.49222415,126.9858517,2021-10-14
서초구립 서리풀어린이집,건축물 경계선 반경 10m이내의 도로법에 의한 보도 및 차도,서울특별시,서초구,어린이집,서초구 간접흡연피해방지 조례 제5조(서초구 고시 제2012-91호),10,100000,02-2155-8176,서울특별시 서초구 반포대로 121(서초동),서울특별시 서초구 서초동 1541-1,서초구보건소 건강정책과,37.49072187,127.0076439,2021-10-14
서초구립 서울교육대학교사향어린이집,건축물 경계선 반경 10m이내의 도로법에 의한 보도 및 차도,서울특별시,서초구,어린이집,서초구 간접흡연피해방지 조례 제5조(서초구 고시 제2012-91호),10,100000,02-2155-8176,서울특별시 서초구 서초중앙로 96(서초동),서울특별시 서초구 서초동 1650,서초구보건소 건강정책과,37.49074049,127.0154245,2021-10-14
서초구립 서초1동하은어린이집,건축물 경계선 반경 10m이내의 도로법에 의한 보도 및 차도,서울특별시,서초구,어린이집,서초구 간접흡연피해방지 조례 제5조(서초구 고시 제2012-91호),10,100000,02-2155-8176,서울특별시 서초구 서초대로58길 35-6(서초동),서울특별시 서초구 서초동 1668,서초구보건소 건강정책과,37.49318586,127.0182917,2021-10-14
서초구립 서초3단지어린이집,건축물 경계선 반경 10m이내의 도로법에 의한 보도 및 차도,서울특별시,서초구,어린이집,서초구 간접흡연피해방지 조례 제5조(서초구 고시 제2012-91호),10,100000,02-2155-8176,"서울특별시 서초구 양재대로2길 34(우면동, 엘에이치서초3단지)",서울특별시 서초구 우면동 784,서초구보건소 건강정책과,37.45758089,127.0221666,2021-10-14
서초구립 서초3동 어린이집,건축물 경계선 반경 10m이내의 도로법에 의한 보도 및 차도,서울특별시,서초구,어린이집,서초구 간접흡연피해방지 조례 제5조(서초구 고시 제2012-91호),10,100000,02-2155-8176,서울특별시 서초구 반포대로13길 64(서초동),서울특별시 서초구 서초동 1522-6,서초구보건소 건강정책과,37.48521852,127.0075981,2021-10-14
서초구립 서초4동삼풍어린이집,건축물 경계선 반경 10m이내의 도로법에 의한 보도 및 차도,서울특별시,서초구,어린이집,서초구 간접흡연피해방지 조례 제5조(서초구 고시 제2012-91호),10,100000,02-2155-8176,"서울특별시 서초구 서초중앙로 200 5동, 103호(서초동, 삼풍아파트)",서울특별시 서초구 서초동 1685,서초구보건소 건강정책과,37.50042675,127.0154753,2021-10-14
서초구립 서초4동써밋1어린이집,건축물 경계선 반경 10m이내의 도로법에 의한 보도 및 차도,서울특별시,서초구,어린이집,서초구 간접흡연피해방지 조례 제5조(서초구 고시 제2012-91호),10,100000,02-2155-8176,"서울특별시 서초구 서운로 201 (서초동, 푸르지오써밋아파트)",서울특별시 서초구 서초동 1311,서초구보건소 건강정책과,37.50132345,127.0201258,2021-10-14
서초구립 서초4동써밋2어린이집,건축물 경계선 반경 10m이내의 도로법에 의한 보도 및 차도,서울특별시,서초구,어린이집,서초구 간접흡연피해방지 조례 제5조(서초구 고시 제2012-91호),10,100000,02-2155-8176,"서울특별시 서초구 서운로 212 (서초동, 서초푸르지오써밋아파트)",서울특별시 서초구 서초동 1310,서초구보건소 건강정책과,37.50185644,127.022424,2021-10-14
서초구립 서초4동행복어린이집,건축물 경계선 반경 10m이내의 도로법에 의한 보도 및 차도,서울특별시,서초구,어린이집,서초구 간접흡연피해방지 조례 제5조(서초구 고시 제2012-91호),10,100000,02-2155-8176,"서울특별시 서초구 서초중앙로 200 3동 106호(서초동, 삼풍아파트)",서울특별시 서초구 서초동 1685,서초구보건소 건강정책과,37.50042675,127.0154753,2021-10-14
서초구립 서초성모어린이집,건축물 경계선 반경 10m이내의 도로법에 의한 보도 및 차도,서울특별시,서초구,어린이집,서초구 간접흡연피해방지 조례 제5조(서초구 고시 제2012-91호),10,100000,02-2155-8176,서울특별시 서초구 고무래로8길 21(반포동),서울특별시 서초구 반포동 54-9,서초구보건소 건강정책과,37.50107971,127.0095087,2021-10-14
서초구립 아람어린이집,건축물 경계선 반경 10m이내의 도로법에 의한 보도 및 차도,서울특별시,서초구,어린이집,서초구 간접흡연피해방지 조례 제5조(서초구 고시 제2012-91호),10,100000,02-2155-8176,"서울특별시 서초구 태봉로2길 5 505동(우면동, 서초네이처힐5단지)",서울특별시 서초구 우면동 730,서초구보건소 건강정책과,37.46297935,127.0242164,2021-10-14
서초구립 아르떼어린이집,건축물 경계선 반경 10m이내의 도로법에 의한 보도 및 차도,서울특별시,서초구,어린이집,서초구 간접흡연피해방지 조례 제5조(서초구 고시 제2012-91호),10,100000,02-2155-8176,"서울특별시 서초구 방배천로18길 11(방배동, 방배롯데캐슬아르떼)",서울특별시 서초구 방배동 424-28 방배롯데캐슬아르떼 관리동,서초구보건소 건강정책과,37.48360655,126.9831036,2021-10-14
서초구립 아이숲어린이집,건축물 경계선 반경 10m이내의 도로법에 의한 보도 및 차도,서울특별시,서초구,어린이집,서초구 간접흡연피해방지 조례 제5조(서초구 고시 제2012-91호),10,100000,02-2155-8176,"서울특별시 서초구 청계산로9길 1-12 602동(신원동, 서초포레스타6단지)",서울특별시 서초구 신원동 285,서초구보건소 건강정책과,37.44968392,127.0562402,2021-10-14
서초구립 아크로달어린이집,건축물 경계선 반경 10m이내의 도로법에 의한 보도 및 차도,서울특별시,서초구,어린이집,서초구 간접흡연피해방지 조례 제5조(서초구 고시 제2012-91호),10,100000,02-2155-8176,"서울특별시 서초구 신반포로15길 19 104동(반포동, 아크로리버파크)",서울특별시 서초구 반포동 2-12,서초구보건소 건강정책과,37.50625164,126.9926712,2021-10-14
서초구립 아크로별어린이집,건축물 경계선 반경 10m이내의 도로법에 의한 보도 및 차도,서울특별시,서초구,어린이집,서초구 간접흡연피해방지 조례 제5조(서초구 고시 제2012-91호),10,100000,02-2155-8176,"서울특별시 서초구 신반포로15길 19 100동(반포동, 아크로리버파크)",서울특별시 서초구 반포동 2-12,서초구보건소 건강정책과,37.50625164,126.9926712,2021-10-14
서초구립 아크로해어린이집,건축물 경계선 반경 10m이내의 도로법에 의한 보도 및 차도,서울특별시,서초구,어린이집,서초구 간접흡연피해방지 조례 제5조(서초구 고시 제2012-91호),10,100000,02-2155-8176,"서울특별시 서초구 신반포로15길 19 106동(반포동, 아크로리버파크)",서울특별시 서초구 반포동 2-12,서초구보건소 건강정책과,37.50625164,126.9926712,2021-10-14
서초구립 양재목련어린이집,건축물 경계선 반경 10m이내의 도로법에 의한 보도 및 차도,서울특별시,서초구,어린이집,서초구 간접흡연피해방지 조례 제5조(서초구 고시 제2012-91호),10,100000,02-2155-8176,서울특별시 서초구 언남16길 37(양재동),서울특별시 서초구 양재동 300-11,서초구보건소 건강정책과,37.47348208,127.0464951,2021-10-14
서초구립 양재별하어린이집,건축물 경계선 반경 10m이내의 도로법에 의한 보도 및 차도,서울특별시,서초구,어린이집,서초구 간접흡연피해방지 조례 제5조(서초구 고시 제2012-91호),10,100000,02-2155-8176,서울특별시 서초구 논현로5길 15-5(양재동),서울특별시 서초구 양재동 401-12,서초구보건소 건강정책과,37.47197081,127.0493972,2021-10-14
서초구립 에스티지하늘어린이집,건축물 경계선 반경 10m이내의 도로법에 의한 보도 및 차도,서울특별시,서초구,어린이집,서초구 간접흡연피해방지 조례 제5조(서초구 고시 제2012-91호),10,100000,02-2155-8176,"서울특별시 서초구 서운로 107 1층(서초동, 래미안서초에스티지)",서울특별시 서초구 서초동 1332-13,서초구보건소 건강정책과,37.49300713,127.0254533,2021-10-14
서초구립 잠원동어린이집,건축물 경계선 반경 10m이내의 도로법에 의한 보도 및 차도,서울특별시,서초구,어린이집,서초구 간접흡연피해방지 조례 제5조(서초구 고시 제2012-91호),10,100000,02-2155-8176,서울특별시 서초구 강남대로95길 75(잠원동),서울특별시 서초구 잠원동 34-8,서초구보건소 건강정책과,37.51187294,127.0168349,2021-10-14
서초구립 잠원햇살어린이집,건축물 경계선 반경 10m이내의 도로법에 의한 보도 및 차도,서울특별시,서초구,어린이집,서초구 간접흡연피해방지 조례 제5조(서초구 고시 제2012-91호),10,100000,02-2155-8176,"서울특별시 서초구 잠원로8길 25(잠원동, 래미안신반포팰리스)",서울특별시 서초구 잠원동 158,서초구보건소 건강정책과,37.5144017,127.0114966,2021-10-14
서초구립 포레스타2단지어린이집,건축물 경계선 반경 10m이내의 도로법에 의한 보도 및 차도,서울특별시,서초구,어린이집,서초구 간접흡연피해방지 조례 제5조(서초구 고시 제2012-91호),10,100000,02-2155-8176,서울특별시 서초구 헌릉로8길 45(내곡동),서울특별시 서초구 내곡동 143,서초구보건소 건강정책과,37.45469039,127.062546,2021-10-14
서초구립 포레스타3단지어린이집,건축물 경계선 반경 10m이내의 도로법에 의한 보도 및 차도,서울특별시,서초구,어린이집,서초구 간접흡연피해방지 조례 제5조(서초구 고시 제2012-91호),10,100000,02-2155-8176,"서울특별시 서초구 헌릉로8길 22 305동(신원동, 서초포레스타3단지)",서울특별시 서초구 신원동 408,서초구보건소 건강정책과,37.45526877,127.0591784,2021-10-14
서초구립 포레스타5단지어린이집,건축물 경계선 반경 10m이내의 도로법에 의한 보도 및 차도,서울특별시,서초구,어린이집,서초구 간접흡연피해방지 조례 제5조(서초구 고시 제2012-91호),10,100000,02-2155-8176,"서울특별시 서초구 청계산로7길 43 510동(신원동, 서초포레스타5단지)",서울특별시 서초구 신원동 374,서초구보건소 건강정책과,37.45114287,127.0576834,2021-10-14
서초구립 포레스타6단지어린이집,건축물 경계선 반경 10m이내의 도로법에 의한 보도 및 차도,서울특별시,서초구,어린이집,서초구 간접흡연피해방지 조례 제5조(서초구 고시 제2012-91호),10,100000,02-2155-8176,"서울특별시 서초구 청계산로9길 1-12(신원동, 서초포레스타6단지)",서울특별시 서초구 신원동 285,서초구보건소 건강정책과,37.44968392,127.0562402,2021-10-14
서초구립 포레스타7단지어린이집,건축물 경계선 반경 10m이내의 도로법에 의한 보도 및 차도,서울특별시,서초구,어린이집,서초구 간접흡연피해방지 조례 제5조(서초구 고시 제2012-91호),10,100000,02-2155-8176,"서울특별시 서초구 청계산로11길 7-12 708동(신원동, 서초포레스타7단지)",서울특별시 서초구 신원동 266,서초구보건소 건강정책과,37.44855233,127.0560631,2021-10-14
서초구립네이처힐1단지어린이집,건축물 경계선 반경 10m이내의 도로법에 의한 보도 및 차도,서울특별시,서초구,어린이집,서초구 간접흡연피해방지 조례 제5조(서초구 고시 제2012-91호),10,100000,02-2155-8176,"서울특별시 서초구 형촌길 35 109동(우면동, 서초네이처힐1단지)",서울특별시 서초구 우면동 707,서초구보건소 건강정책과,37.46410836,127.0191075,2021-10-14
서초구립네이처힐3단지어린이집,건축물 경계선 반경 10m이내의 도로법에 의한 보도 및 차도,서울특별시,서초구,어린이집,서초구 간접흡연피해방지 조례 제5조(서초구 고시 제2012-91호),10,100000,02-2155-8176,"서울특별시 서초구 태봉로2길 60 307동(우면동, 서초네이처힐3단지)",서울특별시 서초구 우면동 717,서초구보건소 건강정책과,37.46565291,127.0271833,2021-10-14
서초구립네이처힐6단지어린이집,건축물 경계선 반경 10m이내의 도로법에 의한 보도 및 차도,서울특별시,서초구,어린이집,서초구 간접흡연피해방지 조례 제5조(서초구 고시 제2012-91호),10,100000,02-2155-8176,"서울특별시 서초구 태봉로2길 30 601동(우면동, 서초네이처힐6단지)",서울특별시 서초구 우면동 737,서초구보건소 건강정책과,37.4611518,127.025649,2021-10-14
서초구립반포서래어린이집,건축물 경계선 반경 10m이내의 도로법에 의한 보도 및 차도,서울특별시,서초구,어린이집,서초구 간접흡연피해방지 조례 제5조(서초구 고시 제2012-91호),10,100000,02-2155-8176,서울특별시 서초구 사평대로28길 70(반포동),서울특별시 서초구 반포4동 74-7,서초구보건소 건강정책과,37.49748688,127.0003302,2021-10-14
서초구립방배열린어린이집,건축물 경계선 반경 10m이내의 도로법에 의한 보도 및 차도,서울특별시,서초구,어린이집,서초구 간접흡연피해방지 조례 제5조(서초구 고시 제2012-91호),10,100000,02-2155-8176,서울특별시 서초구 방배로 173 방배열린문화센터 (방배동),서울특별시 서초구 방배동 852-14,서초구보건소 건강정책과,37.48900635,126.9922432,2021-10-14
서초구립신반포어린이집,건축물 경계선 반경 10m이내의 도로법에 의한 보도 및 차도,서울특별시,서초구,어린이집,서초구 간접흡연피해방지 조례 제5조(서초구 고시 제2012-91호),10,100000,02-2155-8176,서울특별시 서초구 신반포로19길 26 신반포중학교(반포동),서울특별시 서초구 반포동 3-1,서초구보건소 건강정책과,37.50626622,126.996123,2021-10-14
서초구립예아어린이집,건축물 경계선 반경 10m이내의 도로법에 의한 보도 및 차도,서울특별시,서초구,어린이집,서초구 간접흡연피해방지 조례 제5조(서초구 고시 제2012-91호),10,100000,02-2155-8176,서울특별시 서초구 방배천로18길 36-8(방배동),서울특별시 서초구 방배동 436-5,서초구보건소 건강정책과,37.4823994,126.9845737,2021-10-14
서초구립하나푸르니반포어린이집,건축물 경계선 반경 10m이내의 도로법에 의한 보도 및 차도,서울특별시,서초구,어린이집,서초구 간접흡연피해방지 조례 제5조(서초구 고시 제2012-91호),10,100000,02-2155-8176,서울특별시 서초구 서초중앙로33길 10(반포동),서울특별시 서초구 반포동 53-6,서초구보건소 건강정책과,37.5013463,127.0107482,2021-10-14
서초구청어린이집,건축물 경계선 반경 10m이내의 도로법에 의한 보도 및 차도,서울특별시,서초구,어린이집,서초구 간접흡연피해방지 조례 제5조(서초구 고시 제2012-91호),10,100000,02-2155-8176,서울특별시 서초구 남부순환로347길 46(서초동),서울특별시 서초구 서초동 1360-26,서초구보건소 건강정책과,37.48642194,127.0314197,2021-10-14
서초꿈아이자람어린이집,건축물 경계선 반경 10m이내의 도로법에 의한 보도 및 차도,서울특별시,서초구,어린이집,서초구 간접흡연피해방지 조례 제5조(서초구 고시 제2012-91호),10,100000,02-2155-8176,서울특별시 서초구 남부순환로347길 21-20(서초동),서울특별시 서초구 서초동 1364-31,서초구보건소 건강정책과,37.48525447,127.0305146,2021-10-14
서초남서울어린이집,건축물 경계선 반경 10m이내의 도로법에 의한 보도 및 차도,서울특별시,서초구,어린이집,서초구 간접흡연피해방지 조례 제5조(서초구 고시 제2012-91호),10,100000,02-2155-8176,서울특별시 서초구 반포대로 310-5(잠원동),"서울특별시 서초구 잠원동 76-9, 10",서초구보건소 건강정책과,37.50686455,127.0008912,2021-10-14
서초더샵포레어린이집,건축물 경계선 반경 10m이내의 도로법에 의한 보도 및 차도,서울특별시,서초구,어린이집,서초구 간접흡연피해방지 조례 제5조(서초구 고시 제2012-91호),10,100000,02-2155-8176,"서울특별시 서초구 헌릉로8길 58 104동(내곡동, 서초더샵포레)",서울특별시 서초구 내곡동 77,서초구보건소 건강정책과,37.4532452,127.062477,2021-10-14
서초래미안어린이집,건축물 경계선 반경 10m이내의 도로법에 의한 보도 및 차도,서울특별시,서초구,어린이집,서초구 간접흡연피해방지 조례 제5조(서초구 고시 제2012-91호),10,100000,02-2155-8176,"서울특별시 서초구 서초대로65길 13-10(서초동, 서초래미안아파트)",서울특별시 서초구 서초동 1682,서초구보건소 건강정책과,37.49742766,127.0191522,2021-10-14
서초상명어린이집,건축물 경계선 반경 10m이내의 도로법에 의한 보도 및 차도,서울특별시,서초구,어린이집,서초구 간접흡연피해방지 조례 제5조(서초구 고시 제2012-91호),10,100000,02-2155-8176,서울특별시 서초구 명달로11길 16(서초동),서울특별시 서초구 서초동 1491-12,서초구보건소 건강정책과,37.48345995,127.0031161,2021-10-14
서초숲속별어린이집,건축물 경계선 반경 10m이내의 도로법에 의한 보도 및 차도,서울특별시,서초구,어린이집,서초구 간접흡연피해방지 조례 제5조(서초구 고시 제2012-91호),10,100000,02-2155-8176,서울특별시 서초구 헌릉로8길 22(신원동),서울특별시 서초구 신원동 408,서초구보건소 건강정책과,37.45526877,127.0591784,2021-10-14
서초아이자람어린이집,건축물 경계선 반경 10m이내의 도로법에 의한 보도 및 차도,서울특별시,서초구,어린이집,서초구 간접흡연피해방지 조례 제5조(서초구 고시 제2012-91호),10,100000,02-2155-8176,서울특별시 서초구 사임당로20길 48-4(서초동),서울특별시 서초구 서초동 1614-34,서초구보건소 건강정책과,37.48903334,127.0222483,2021-10-14
서초양재어린이집,건축물 경계선 반경 10m이내의 도로법에 의한 보도 및 차도,서울특별시,서초구,어린이집,서초구 간접흡연피해방지 조례 제5조(서초구 고시 제2012-91호),10,100000,02-2155-8176,서울특별시 서초구 강남대로34길 46-12(양재동),서울특별시 서초구 양재동 8-58,서초구보건소 건강정책과,37.48330377,127.0385385,2021-10-14
서초어린이집,건축물 경계선 반경 10m이내의 도로법에 의한 보도 및 차도,서울특별시,서초구,어린이집,서초구 간접흡연피해방지 조례 제5조(서초구 고시 제2012-91호),10,100000,02-2155-8176,서울특별시 서초구 남부순환로 2271-1(방배동),서울특별시 서초구 방배동 1027-6,서초구보건소 건강정책과,37.47467696,127.0002351,2021-10-14
서초에코리치어린이집,건축물 경계선 반경 10m이내의 도로법에 의한 보도 및 차도,서울특별시,서초구,어린이집,서초구 간접흡연피해방지 조례 제5조(서초구 고시 제2012-91호),10,100000,02-2155-8176,서울특별시 서초구 양재대로2길 109(우면동),서울특별시 서초구 우면동 753,서초구보건소 건강정책과,37.45611532,127.0137843,2021-10-14
서초연꽃어린이집,건축물 경계선 반경 10m이내의 도로법에 의한 보도 및 차도,서울특별시,서초구,어린이집,서초구 간접흡연피해방지 조례 제5조(서초구 고시 제2012-91호),10,100000,02-2155-8176,서울특별시 서초구 사임당로19길 51(서초동),서울특별시 서초구 서초동 1642-15,서초구보건소 건강정책과,37.49174789,127.0180381,2021-10-14
서초예랑어린이집,건축물 경계선 반경 10m이내의 도로법에 의한 보도 및 차도,서울특별시,서초구,어린이집,서초구 간접흡연피해방지 조례 제5조(서초구 고시 제2012-91호),10,100000,02-2155-8176,"서울특별시 서초구 효령로23길 82 103호(방배동, 퍼시픽하우스)",서울특별시 서초구 방배동 929-4,서초구보건소 건강정책과,37.48383096,126.9923704,2021-10-14
서초우주어린이집,건축물 경계선 반경 10m이내의 도로법에 의한 보도 및 차도,서울특별시,서초구,어린이집,서초구 간접흡연피해방지 조례 제5조(서초구 고시 제2012-91호),10,100000,02-2155-8176,서울특별시 서초구 동광로18길 22(방배동),서울특별시 서초구 방배동 816-11,서초구보건소 건강정책과,37.49072529,126.989882,2021-10-14
서초이화어린이집,건축물 경계선 반경 10m이내의 도로법에 의한 보도 및 차도,서울특별시,서초구,어린이집,서초구 간접흡연피해방지 조례 제5조(서초구 고시 제2012-91호),10,100000,02-2155-8176,서울특별시 서초구 방배로39길 42(방배동),서울특별시 서초구 방배동 769-19,서초구보건소 건강정책과,37.49422089,126.9867424,2021-10-14
서초장미어린이집,건축물 경계선 반경 10m이내의 도로법에 의한 보도 및 차도,서울특별시,서초구,어린이집,서초구 간접흡연피해방지 조례 제5조(서초구 고시 제2012-91호),10,100000,02-2155-8176,서울특별시 서초구 남부순환로 2543-5(서초동),서울특별시 서초구 서초동 1353-3,서초구보건소 건강정책과,37.484199,127.0284609,2021-10-14
서초중앙어린이집,건축물 경계선 반경 10m이내의 도로법에 의한 보도 및 차도,서울특별시,서초구,어린이집,서초구 간접흡연피해방지 조례 제5조(서초구 고시 제2012-91호),10,100000,02-2155-8176,서울특별시 서초구 남부순환로289길 35(방배동),서울특별시 서초구 방배동 530-55,서초구보건소 건강정책과,37.47679563,126.989097,2021-10-14
서초한별어린이집,건축물 경계선 반경 10m이내의 도로법에 의한 보도 및 차도,서울특별시,서초구,어린이집,서초구 간접흡연피해방지 조례 제5조(서초구 고시 제2012-91호),10,100000,02-2155-8176,서울특별시 서초구 마방로2길 15-9(양재동),서울특별시 서초구 양재동 249-12,서초구보건소 건강정책과,37.47330798,127.0396306,2021-10-14
서초현대어린이집,건축물 경계선 반경 10m이내의 도로법에 의한 보도 및 차도,서울특별시,서초구,어린이집,서초구 간접흡연피해방지 조례 제5조(서초구 고시 제2012-91호),10,100000,02-2155-8176,서울특별시 서초구 강남대로30길 77(양재동),서울특별시 서초구 양재동 7-56,서초구보건소 건강정책과,37.48304448,127.0415119,2021-10-14
선우어린이집,건축물 경계선 반경 10m이내의 도로법에 의한 보도 및 차도,서울특별시,서초구,어린이집,서초구 간접흡연피해방지 조례 제5조(서초구 고시 제2012-91호),10,100000,02-2155-8176,서울특별시 서초구 방배로15길 26(방배동),서울특별시 서초구 방배동 925-13,서초구보건소 건강정책과,37.48389595,126.9942879,2021-10-14
성분도어린이집,건축물 경계선 반경 10m이내의 도로법에 의한 보도 및 차도,서울특별시,서초구,어린이집,서초구 간접흡연피해방지 조례 제5조(서초구 고시 제2012-91호),10,100000,02-2155-8176,서울특별시 서초구 방배로 40(방배동),서울특별시 서초구 방배동 1023-3,서초구보건소 건강정책과,37.47843957,126.9999955,2021-10-14
성촌어린이집,건축물 경계선 반경 10m이내의 도로법에 의한 보도 및 차도,서울특별시,서초구,어린이집,서초구 간접흡연피해방지 조례 제5조(서초구 고시 제2012-91호),10,100000,02-2155-8176,서울특별시 서초구 성촌6길 1(우면동),서울특별시 서초구 우면동 204-7,서초구보건소 건강정책과,37.46719351,127.0206364,2021-10-14
세화어린이집,건축물 경계선 반경 10m이내의 도로법에 의한 보도 및 차도,서울특별시,서초구,어린이집,서초구 간접흡연피해방지 조례 제5조(서초구 고시 제2012-91호),10,100000,02-2155-8176,서울특별시 서초구 방배중앙로27길 36(방배동),서울특별시 서초구 방배동 764-35,서초구보건소 건강정책과,37.49530893,126.9837025,2021-10-14
소망어린이집,건축물 경계선 반경 10m이내의 도로법에 의한 보도 및 차도,서울특별시,서초구,어린이집,서초구 간접흡연피해방지 조례 제5조(서초구 고시 제2012-91호),10,100000,02-2155-8176,"서울특별시 서초구 태봉로2길 60 312동 103호(우면동, 서초네이처힐3단지)",서울특별시 서초구 우면동 717,서초구보건소 건강정책과,37.46565291,127.0271833,2021-10-14
수표교어린이집,건축물 경계선 반경 10m이내의 도로법에 의한 보도 및 차도,서울특별시,서초구,어린이집,서초구 간접흡연피해방지 조례 제5조(서초구 고시 제2012-91호),10,100000,02-2155-8176,서울특별시 서초구 명달로 52(서초동),서울특별시 서초구 서초동 1488-1,서초구보건소 건강정책과,37.48207891,127.0050088,2021-10-14
신동아어린이집,건축물 경계선 반경 10m이내의 도로법에 의한 보도 및 차도,서울특별시,서초구,어린이집,서초구 간접흡연피해방지 조례 제5조(서초구 고시 제2012-91호),10,100000,02-2155-8176,"서울특별시 서초구 사임당로 130 7동 113호(서초동, 신동아아파트)",서울특별시 서초구 서초동 1334,서초구보건소 건강정책과,37.49162785,127.0242301,2021-10-14
신애어린이집,건축물 경계선 반경 10m이내의 도로법에 의한 보도 및 차도,서울특별시,서초구,어린이집,서초구 간접흡연피해방지 조례 제5조(서초구 고시 제2012-91호),10,100000,02-2155-8176,서울특별시 서초구 바우뫼로9길 9(우면동),서울특별시 서초구 우면동 68,서초구보건소 건강정책과,37.47184479,127.0265887,2021-10-14
아가야어린이집,건축물 경계선 반경 10m이내의 도로법에 의한 보도 및 차도,서울특별시,서초구,어린이집,서초구 간접흡연피해방지 조례 제5조(서초구 고시 제2012-91호),10,100000,02-2155-8176,서울특별시 서초구 방배중앙로15길 22 1층(방배동),서울특별시 서초구 방배동 830-11,서초구보건소 건강정책과,37.4884361,126.9838805,2021-10-14
아띠어린이집,건축물 경계선 반경 10m이내의 도로법에 의한 보도 및 차도,서울특별시,서초구,어린이집,서초구 간접흡연피해방지 조례 제5조(서초구 고시 제2012-91호),10,100000,02-2155-8176,서울특별시 서초구 동광로18길 21(방배동),서울특별시 서초구 방배동 854-29,서초구보건소 건강정책과,37.49095958,126.9901895,2021-10-14
아람마주이야기어린이집,건축물 경계선 반경 10m이내의 도로법에 의한 보도 및 차도,서울특별시,서초구,어린이집,서초구 간접흡연피해방지 조례 제5조(서초구 고시 제2012-91호),10,100000,02-2155-8176,서울특별시 서초구 동광로12길 12(방배동),서울특별시 서초구 방배동 822-29,서초구보건소 건강정책과,37.49079911,126.9865214,2021-10-14
아이사랑어린이집,건축물 경계선 반경 10m이내의 도로법에 의한 보도 및 차도,서울특별시,서초구,어린이집,서초구 간접흡연피해방지 조례 제5조(서초구 고시 제2012-91호),10,100000,02-2155-8176,"서울특별시 서초구 신반포로33길 15 108동 104호(잠원동, 동아아파트)",서울특별시 서초구 잠원동 157,서초구보건소 건강정책과,37.5090446,127.0095233,2021-10-14
아이세상어린이집,건축물 경계선 반경 10m이내의 도로법에 의한 보도 및 차도,서울특별시,서초구,어린이집,서초구 간접흡연피해방지 조례 제5조(서초구 고시 제2012-91호),10,100000,02-2155-8176,"서울특별시 서초구 형촌길 15 205동(우면동, 서초네이처힐2단지)",서울특별시 서초구 우면동 712,서초구보건소 건강정책과,37.46329893,127.021463,2021-10-14
안젤로빅스맘어린이집,건축물 경계선 반경 10m이내의 도로법에 의한 보도 및 차도,서울특별시,서초구,어린이집,서초구 간접흡연피해방지 조례 제5조(서초구 고시 제2012-91호),10,100000,02-2155-8176,"서울특별시 서초구 양재대로2길 109 103동 104호(우면동, 서초참누리에코리치)",서울특별시 서초구 우면동 753,서초구보건소 건강정책과,37.45611532,127.0137843,2021-10-14
양재2동어린이집,건축물 경계선 반경 10m이내의 도로법에 의한 보도 및 차도,서울특별시,서초구,어린이집,서초구 간접흡연피해방지 조례 제5조(서초구 고시 제2012-91호),10,100000,02-2155-8176,서울특별시 서초구 강남대로8길 66-15(양재동),서울특별시 서초구 양재동 341-8,서초구보건소 건강정책과,37.46911829,127.0446746,2021-10-14
양재복지관어린이집,건축물 경계선 반경 10m이내의 도로법에 의한 보도 및 차도,서울특별시,서초구,어린이집,서초구 간접흡연피해방지 조례 제5조(서초구 고시 제2012-91호),10,100000,02-2155-8176,서울특별시 서초구 남부순환로 2610(양재동),서울특별시 서초구 양재동 11-13,서초구보건소 건강정책과,37.48452846,127.0361631,2021-10-14
양재키움어린이집,건축물 경계선 반경 10m이내의 도로법에 의한 보도 및 차도,서울특별시,서초구,어린이집,서초구 간접흡연피해방지 조례 제5조(서초구 고시 제2012-91호),10,100000,02-2155-8176,"서울특별시 서초구 동산로14길 13 라동 101호(양재동, 초원파크빌)",서울특별시 서초구 양재동 391-14,서초구보건소 건강정책과,37.47169072,127.0468783,2021-10-14
양지1어린이집,건축물 경계선 반경 10m이내의 도로법에 의한 보도 및 차도,서울특별시,서초구,어린이집,서초구 간접흡연피해방지 조례 제5조(서초구 고시 제2012-91호),10,100000,02-2155-8176,서울특별시 서초구 샘마을길 73(내곡동),서울특별시 서초구 내곡동 산 13-336,서초구보건소 건강정책과,37.46346902,127.0704296,2021-10-14
양지2어린이집,건축물 경계선 반경 10m이내의 도로법에 의한 보도 및 차도,서울특별시,서초구,어린이집,서초구 간접흡연피해방지 조례 제5조(서초구 고시 제2012-91호),10,100000,02-2155-8176,서울특별시 서초구 샘마을길 73(내곡동),서울특별시 서초구 내곡동 산 13-336,서초구보건소 건강정책과,37.46346902,127.0704296,2021-10-14
에덴어린이집,건축물 경계선 반경 10m이내의 도로법에 의한 보도 및 차도,서울특별시,서초구,어린이집,서초구 간접흡연피해방지 조례 제5조(서초구 고시 제2012-91호),10,100000,02-2155-8176,서울특별시 서초구 방배로19길 36-21(방배동),서울특별시 서초구 방배동 322-4,서초구보건소 건강정책과,37.48494463,126.9926687,2021-10-14
에코맘어린이집,건축물 경계선 반경 10m이내의 도로법에 의한 보도 및 차도,서울특별시,서초구,어린이집,서초구 간접흡연피해방지 조례 제5조(서초구 고시 제2012-91호),10,100000,02-2155-8176,"서울특별시 서초구 신반포로 32 22동 106호(반포동, 에이아이디차관주택)",서울특별시 서초구 반포동 968,서초구보건소 건강정책과,37.50071216,126.9912377,2021-10-14
에코비어린이집,건축물 경계선 반경 10m이내의 도로법에 의한 보도 및 차도,서울특별시,서초구,어린이집,서초구 간접흡연피해방지 조례 제5조(서초구 고시 제2012-91호),10,100000,02-2155-8176,"서울특별시 서초구 잠원로 150 3동 102호(잠원동, 잠원한신아파트)",서울특별시 서초구 잠원동 56-3,서초구보건소 건강정책과,37.51633536,127.0113521,2021-10-14
열매어린이집,건축물 경계선 반경 10m이내의 도로법에 의한 보도 및 차도,서울특별시,서초구,어린이집,서초구 간접흡연피해방지 조례 제5조(서초구 고시 제2012-91호),10,100000,02-2155-8176,"서울특별시 서초구 태봉로2길 10(우면동, 서초네이처힐7단지)",서울특별시 서초구 우면동 735,서초구보건소 건강정책과,37.4620461,127.0232666,2021-10-14
영광어린이집,건축물 경계선 반경 10m이내의 도로법에 의한 보도 및 차도,서울특별시,서초구,어린이집,서초구 간접흡연피해방지 조례 제5조(서초구 고시 제2012-91호),10,100000,02-2155-8176,서울특별시 서초구 서초대로19길 59-4(방배동),서울특별시 서초구 방배동 833-25,서초구보건소 건강정책과,37.48952514,126.9897419,2021-10-14
영어린이집,건축물 경계선 반경 10m이내의 도로법에 의한 보도 및 차도,서울특별시,서초구,어린이집,서초구 간접흡연피해방지 조례 제5조(서초구 고시 제2012-91호),10,100000,02-2155-8176,"서울특별시 서초구 잠원로 136 345동 102호(잠원동, 신반포한신아파트)",서울특별시 서초구 잠원동 61-1,서초구보건소 건강정책과,37.51530118,127.0093793,2021-10-14
예닮어린이집,건축물 경계선 반경 10m이내의 도로법에 의한 보도 및 차도,서울특별시,서초구,어린이집,서초구 간접흡연피해방지 조례 제5조(서초구 고시 제2012-91호),10,100000,02-2155-8176,서울특별시 서초구 방배천로24길 38(방배동),서울특별시 서초구 방배동 954-2,서초구보건소 건강정책과,37.48470612,126.9856134,2021-10-14
예랑어린이집,건축물 경계선 반경 10m이내의 도로법에 의한 보도 및 차도,서울특별시,서초구,어린이집,서초구 간접흡연피해방지 조례 제5조(서초구 고시 제2012-91호),10,100000,02-2155-8176,서울특별시 서초구 청두곶길 46(방배동),서울특별시 서초구 방배동 460-21,서초구보건소 건강정책과,37.48078077,126.9855644,2021-10-14
예쁜어린이집,건축물 경계선 반경 10m이내의 도로법에 의한 보도 및 차도,서울특별시,서초구,어린이집,서초구 간접흡연피해방지 조례 제5조(서초구 고시 제2012-91호),10,100000,02-2155-8176,"서울특별시 서초구 서초중앙로29길 16-8(반포동, 대림빌라)",서울특별시 서초구 반포동 45-1,서초구보건소 건강정책과,37.4994866,127.0110058,2021-10-14
오즈의마법사어린이집,건축물 경계선 반경 10m이내의 도로법에 의한 보도 및 차도,서울특별시,서초구,어린이집,서초구 간접흡연피해방지 조례 제5조(서초구 고시 제2012-91호),10,100000,02-2155-8176,"서울특별시 서초구 신반포로33길 15 107동 103호(잠원동, 동아아파트)",서울특별시 서초구 잠원동 157,서초구보건소 건강정책과,37.5090446,127.0095233,2021-10-14
온무리어린이집,건축물 경계선 반경 10m이내의 도로법에 의한 보도 및 차도,서울특별시,서초구,어린이집,서초구 간접흡연피해방지 조례 제5조(서초구 고시 제2012-91호),10,100000,02-2155-8176,서울특별시 서초구 남부순환로364길 7-4(양재동),서울특별시 서초구 양재동 2-33,서초구보건소 건강정책과,37.48447298,127.0405365,2021-10-14
우리어린이집,건축물 경계선 반경 10m이내의 도로법에 의한 보도 및 차도,서울특별시,서초구,어린이집,서초구 간접흡연피해방지 조례 제5조(서초구 고시 제2012-91호),10,100000,02-2155-8176,서울특별시 서초구 서초대로28길 16(방배동),서울특별시 서초구 방배동 896-9,서초구보건소 건강정책과,37.48760095,126.9956128,2021-10-14
우면어린이집,건축물 경계선 반경 10m이내의 도로법에 의한 보도 및 차도,서울특별시,서초구,어린이집,서초구 간접흡연피해방지 조례 제5조(서초구 고시 제2012-91호),10,100000,02-2155-8176,"서울특별시 서초구 바우뫼로7길 11(우면동, 우면주공아파트)",서울특별시 서초구 우면동 63,서초구보건소 건강정책과,37.46986315,127.0238659,2021-10-14
우성어린이집,건축물 경계선 반경 10m이내의 도로법에 의한 보도 및 차도,서울특별시,서초구,어린이집,서초구 간접흡연피해방지 조례 제5조(서초구 고시 제2012-91호),10,100000,02-2155-8176,"서울특별시 서초구 방배선행길 1 102동 103호(방배동,우성아파트)",서울특별시 서초구 방배동 2525,서초구보건소 건강정책과,37.47500718,126.9821559,2021-10-14
유하아이비클럽어린이집,건축물 경계선 반경 10m이내의 도로법에 의한 보도 및 차도,서울특별시,서초구,어린이집,서초구 간접흡연피해방지 조례 제5조(서초구 고시 제2012-91호),10,100000,02-2155-8176,"서울특별시 서초구 서초중앙로24길 33(서초동, 서초교대이편한세상)",서울특별시 서초구 서초동 1686-9,서초구보건소 건강정책과,37.49575211,127.0170529,2021-10-14
은빛어린이집,건축물 경계선 반경 10m이내의 도로법에 의한 보도 및 차도,서울특별시,서초구,어린이집,서초구 간접흡연피해방지 조례 제5조(서초구 고시 제2012-91호),10,100000,02-2155-8176,"서울특별시 서초구 효령로68길 13 21동 102호(서초동, 현대아파트)",서울특별시 서초구 서초동 1436-1,서초구보건소 건강정책과,37.48739812,127.0252977,2021-10-14
은혜어린이집,건축물 경계선 반경 10m이내의 도로법에 의한 보도 및 차도,서울특별시,서초구,어린이집,서초구 간접흡연피해방지 조례 제5조(서초구 고시 제2012-91호),10,100000,02-2155-8176,서울특별시 서초구 마방로10길 54-19(양재동),서울특별시 서초구 양재동 272,서초구보건소 건강정책과,37.47469393,127.044167,2021-10-14
이노키즈어린이집,건축물 경계선 반경 10m이내의 도로법에 의한 보도 및 차도,서울특별시,서초구,어린이집,서초구 간접흡연피해방지 조례 제5조(서초구 고시 제2012-91호),10,100000,02-2155-8176,서울특별시 서초구 서초중앙로8길 47(서초동),서울특별시 서초구 서초동 1618-5,서초구보건소 건강정책과,37.48730771,127.0181139,2021-10-14
자연닮은꼬마숲어린이집,건축물 경계선 반경 10m이내의 도로법에 의한 보도 및 차도,서울특별시,서초구,어린이집,서초구 간접흡연피해방지 조례 제5조(서초구 고시 제2012-91호),10,100000,02-2155-8176,"서울특별시 서초구 사임당로23길 58 301동 105호(서초동, 현대3차아파트)",서울특별시 서초구 서초동 1644,서초구보건소 건강정책과,37.49255825,127.0213365,2021-10-14
잠원꿈밭어린이집,건축물 경계선 반경 10m이내의 도로법에 의한 보도 및 차도,서울특별시,서초구,어린이집,서초구 간접흡연피해방지 조례 제5조(서초구 고시 제2012-91호),10,100000,02-2155-8176,서울특별시 서초구 강남대로95길 48-58(잠원동),서울특별시 서초구 잠원동 24-11,서초구보건소 건강정책과,37.51375066,127.0165956,2021-10-14
잠원시온어린이집,건축물 경계선 반경 10m이내의 도로법에 의한 보도 및 차도,서울특별시,서초구,어린이집,서초구 간접흡연피해방지 조례 제5조(서초구 고시 제2012-91호),10,100000,02-2155-8176,"서울특별시 서초구 잠원로 150 4동 107호(잠원동, 잠원한신아파트)",서울특별시 서초구 잠원동 56-3,서초구보건소 건강정책과,37.51633536,127.0113521,2021-10-14
잠원어린이집,건축물 경계선 반경 10m이내의 도로법에 의한 보도 및 차도,서울특별시,서초구,어린이집,서초구 간접흡연피해방지 조례 제5조(서초구 고시 제2012-91호),10,100000,02-2155-8176,"서울특별시 서초구 신반포로33길 15(잠원동, 동아아파트)",서울특별시 서초구 잠원동 157,서초구보건소 건강정책과,37.5090446,127.0095233,2021-10-14
정다운어린이집,건축물 경계선 반경 10m이내의 도로법에 의한 보도 및 차도,서울특별시,서초구,어린이집,서초구 간접흡연피해방지 조례 제5조(서초구 고시 제2012-91호),10,100000,02-2155-8176,"서울특별시 서초구 양재대로2길 90 207동 101호(우면동, 서초힐스)",서울특별시 서초구 우면동 773,서초구보건소 건강정책과,37.45760689,127.0175687,2021-10-14
조은아이어린이집,건축물 경계선 반경 10m이내의 도로법에 의한 보도 및 차도,서울특별시,서초구,어린이집,서초구 간접흡연피해방지 조례 제5조(서초구 고시 제2012-91호),10,100000,02-2155-8176,"서울특별시 서초구 사평대로 310-4 1동 103호(반포동, 반포현대아파트)",서울특별시 서초구 반포동 30-15,서초구보건소 건강정책과,37.5099993,127.018457,2021-10-14
조이어린이집,건축물 경계선 반경 10m이내의 도로법에 의한 보도 및 차도,서울특별시,서초구,어린이집,서초구 간접흡연피해방지 조례 제5조(서초구 고시 제2012-91호),10,100000,02-2155-8176,서울특별시 서초구 본마을길 45-5(신원동),서울특별시 서초구 신원동 462-30,서초구보건소 건강정책과,37.45401313,127.0546702,2021-10-14
지아이에이어린이집,건축물 경계선 반경 10m이내의 도로법에 의한 보도 및 차도,서울특별시,서초구,어린이집,서초구 간접흡연피해방지 조례 제5조(서초구 고시 제2012-91호),10,100000,02-2155-8176,서울특별시 서초구 잠원로 150 1-103호(잠원동),서울특별시 서초구 잠원동 56-3,서초구보건소 건강정책과,37.51633536,127.0113521,2021-10-14
청계산반디빅스맘어린이집,건축물 경계선 반경 10m이내의 도로법에 의한 보도 및 차도,서울특별시,서초구,어린이집,서초구 간접흡연피해방지 조례 제5조(서초구 고시 제2012-91호),10,100000,02-2155-8176,서울특별시 서초구 청계산로11길 10(신원동),서울특별시 서초구 신원동 207,서초구보건소 건강정책과,37.44750663,127.0571653,2021-10-14
초록어린이집,건축물 경계선 반경 10m이내의 도로법에 의한 보도 및 차도,서울특별시,서초구,어린이집,서초구 간접흡연피해방지 조례 제5조(서초구 고시 제2012-91호),10,100000,02-2155-8176,서울특별시 서초구 명달로20길 33(서초동),서울특별시 서초구 서초동 1514-4,서초구보건소 건강정책과,37.48616287,127.0059746,2021-10-14
칼비테영재어린이집,건축물 경계선 반경 10m이내의 도로법에 의한 보도 및 차도,서울특별시,서초구,어린이집,서초구 간접흡연피해방지 조례 제5조(서초구 고시 제2012-91호),10,100000,02-2155-8176,"서울특별시 서초구 방배천로2안길 10 101동 101호(방배동, 신주아파트)",서울특별시 서초구 방배동 449-1,서초구보건소 건강정책과,37.47741495,126.9840592,2021-10-14
코코어린이집,건축물 경계선 반경 10m이내의 도로법에 의한 보도 및 차도,서울특별시,서초구,어린이집,서초구 간접흡연피해방지 조례 제5조(서초구 고시 제2012-91호),10,100000,02-2155-8176,서울특별시 서초구 명달로4길 8(서초동),서울특별시 서초구 서초동 1467-2,서초구보건소 건강정책과,37.47990985,127.006372,2021-10-14
키즈랜드어린이집,건축물 경계선 반경 10m이내의 도로법에 의한 보도 및 차도,서울특별시,서초구,어린이집,서초구 간접흡연피해방지 조례 제5조(서초구 고시 제2012-91호),10,100000,02-2155-8176,"서울특별시 서초구 양재대로2길 90(우면동, 서초네이처힐7단지)",서울특별시 서초구 우면동 773,서초구보건소 건강정책과,37.45760689,127.0175687,2021-10-14
키즈열매어린이집,건축물 경계선 반경 10m이내의 도로법에 의한 보도 및 차도,서울특별시,서초구,어린이집,서초구 간접흡연피해방지 조례 제5조(서초구 고시 제2012-91호),10,100000,02-2155-8176,"서울특별시 서초구 태봉로2길 10 702동 102호(우면동, 서초네이처힐7단지)",서울특별시 서초구 우면동 735,서초구보건소 건강정책과,37.4620461,127.0232666,2021-10-14
킨더아카데미어린이집,건축물 경계선 반경 10m이내의 도로법에 의한 보도 및 차도,서울특별시,서초구,어린이집,서초구 간접흡연피해방지 조례 제5조(서초구 고시 제2012-91호),10,100000,02-2155-8176,"서울특별시 서초구 서운로 200(서초동, 롯데캐슬클래식아파트)",서울특별시 서초구 서초동 1312-3,서초구보건소 건강정책과,37.50119667,127.0236225,2021-10-14
킹스키즈어린이집,건축물 경계선 반경 10m이내의 도로법에 의한 보도 및 차도,서울특별시,서초구,어린이집,서초구 간접흡연피해방지 조례 제5조(서초구 고시 제2012-91호),10,100000,02-2155-8176,서울특별시 서초구 방배로15길 22(방배동),서울특별시 서초구 방배동 926-30,서초구보건소 건강정책과,37.48398966,126.9945095,2021-10-14
텀블랜드어린이집,건축물 경계선 반경 10m이내의 도로법에 의한 보도 및 차도,서울특별시,서초구,어린이집,서초구 간접흡연피해방지 조례 제5조(서초구 고시 제2012-91호),10,100000,02-2155-8176,서울특별시 서초구 바우뫼로37길 9(양재동),서울특별시 서초구 양재동 5-16,서초구보건소 건강정책과,37.47924022,127.0396699,2021-10-14
토마토어린이집,건축물 경계선 반경 10m이내의 도로법에 의한 보도 및 차도,서울특별시,서초구,어린이집,서초구 간접흡연피해방지 조례 제5조(서초구 고시 제2012-91호),10,100000,02-2155-8176,"서울특별시 서초구 서초중앙로24길 43 101동 103호(서초동, 유원아파트)",서울특별시 서초구 서초동 1687,서초구보건소 건강정책과,37.49588883,127.0185954,2021-10-14
파란꿈어린이집,건축물 경계선 반경 10m이내의 도로법에 의한 보도 및 차도,서울특별시,서초구,어린이집,서초구 간접흡연피해방지 조례 제5조(서초구 고시 제2012-91호),10,100000,02-2155-8176,"서울특별시 서초구 잠원로 37-6 202동 107호(잠원동, 신반포한신아파트)",서울특별시 서초구 잠원동 70,서초구보건소 건강정책과,37.51007917,127.00618,2021-10-14
파란나라어린이집,건축물 경계선 반경 10m이내의 도로법에 의한 보도 및 차도,서울특별시,서초구,어린이집,서초구 간접흡연피해방지 조례 제5조(서초구 고시 제2012-91호),10,100000,02-2155-8176,서울특별시 서초구 서초대로1길 30(방배동),서울특별시 서초구 방배동 1344,서초구보건소 건강정책과,37.48923252,126.9836134,2021-10-14
파랑새어린이집,건축물 경계선 반경 10m이내의 도로법에 의한 보도 및 차도,서울특별시,서초구,어린이집,서초구 간접흡연피해방지 조례 제5조(서초구 고시 제2012-91호),10,100000,02-2155-8176,"서울특별시 서초구 효령로34길 59 3동 102호(방배동, 삼익아파트)",서울특별시 서초구 방배동 1018-1,서초구보건소 건강정책과,37.47911524,127.0008863,2021-10-14
푸르니서초 어린이집,건축물 경계선 반경 10m이내의 도로법에 의한 보도 및 차도,서울특별시,서초구,어린이집,서초구 간접흡연피해방지 조례 제5조(서초구 고시 제2012-91호),10,100000,02-2155-8176,서울특별시 서초구 효령로67길 4(서초동),서울특별시 서초구 서초동 1607-5,서초구보건소 건강정책과,37.48744005,127.0238172,2021-10-14
푸르니작은 어린이집,건축물 경계선 반경 10m이내의 도로법에 의한 보도 및 차도,서울특별시,서초구,어린이집,서초구 간접흡연피해방지 조례 제5조(서초구 고시 제2012-91호),10,100000,02-2155-8176,서울특별시 서초구 서리풀4길 9(서초동),서울특별시 서초구 서초동 1613-22,서초구보건소 건강정책과,37.48822983,127.0212213,2021-10-14
푸른솔어린이집,건축물 경계선 반경 10m이내의 도로법에 의한 보도 및 차도,서울특별시,서초구,어린이집,서초구 간접흡연피해방지 조례 제5조(서초구 고시 제2012-91호),10,100000,02-2155-8176,서울특별시 서초구 홍씨마을길 43-3(신원동),서울특별시 서초구 신원동 285,서초구보건소 건강정책과,37.45194202,127.0663637,2021-10-14
프리오리어린이집,건축물 경계선 반경 10m이내의 도로법에 의한 보도 및 차도,서울특별시,서초구,어린이집,서초구 간접흡연피해방지 조례 제5조(서초구 고시 제2012-91호),10,100000,02-2155-8176,서울특별시 서초구 서초대로25길 97(방배동),서울특별시 서초구 방배동 838-27,서초구보건소 건강정책과,37.49185711,126.9917906,2021-10-14
하늘숲 어린이집,건축물 경계선 반경 10m이내의 도로법에 의한 보도 및 차도,서울특별시,서초구,어린이집,서초구 간접흡연피해방지 조례 제5조(서초구 고시 제2012-91호),10,100000,02-2155-8176,서울특별시 서초구 본마을길 37(신원동),서울특별시 서초구 신원동 458-10,서초구보건소 건강정책과,37.45420084,127.0540193,2021-10-14
한사랑어린이집,건축물 경계선 반경 10m이내의 도로법에 의한 보도 및 차도,서울특별시,서초구,어린이집,서초구 간접흡연피해방지 조례 제5조(서초구 고시 제2012-91호),10,100000,02-2155-8176,서울특별시 서초구 방배천로8길 35-3(방배동),서울특별시 서초구 방배동 463-15,서초구보건소 건강정책과,37.4806082,126.9845967,2021-10-14
한신어린이집,건축물 경계선 반경 10m이내의 도로법에 의한 보도 및 차도,서울특별시,서초구,어린이집,서초구 간접흡연피해방지 조례 제5조(서초구 고시 제2012-91호),10,100000,02-2155-8176,"서울특별시 서초구 잠원로 37-48 205동 105호(잠원동, 신반포한신아파트)",서울특별시 서초구 잠원동 70,서초구보건소 건강정책과,37.51007917,127.00618,2021-10-14
함께크는어린이집,건축물 경계선 반경 10m이내의 도로법에 의한 보도 및 차도,서울특별시,서초구,어린이집,서초구 간접흡연피해방지 조례 제5조(서초구 고시 제2012-91호),10,100000,02-2155-8176,서울특별시 서초구 바우뫼로11안길 12(우면동),서울특별시 서초구 우면동 28-7,서초구보건소 건강정책과,37.47334404,127.026743,2021-10-14
해돋이어린이집,건축물 경계선 반경 10m이내의 도로법에 의한 보도 및 차도,서울특별시,서초구,어린이집,서초구 간접흡연피해방지 조례 제5조(서초구 고시 제2012-91호),10,100000,02-2155-8176,서울특별시 서초구 방배로33길 58-3(방배동),서울특별시 서초구 방배동 818-15,서초구보건소 건강정책과,37.49113954,126.9875933,2021-10-14
해오름키즈스쿨어린이집,건축물 경계선 반경 10m이내의 도로법에 의한 보도 및 차도,서울특별시,서초구,어린이집,서초구 간접흡연피해방지 조례 제5조(서초구 고시 제2012-91호),10,100000,02-2155-8176,"서울특별시 서초구 방배로 14 7동 101호(방배동, 임광아파트)",서울특별시 서초구 방배동 1015,서초구보건소 건강정책과,37.47652276,127.0012438,2021-10-14
해와달어린이집,건축물 경계선 반경 10m이내의 도로법에 의한 보도 및 차도,서울특별시,서초구,어린이집,서초구 간접흡연피해방지 조례 제5조(서초구 고시 제2012-91호),10,100000,02-2155-8176,"서울특별시 서초구 태봉로2길 60 311동 104호(우면동, 서초네이처힐3단지)",서울특별시 서초구 우면동 717,서초구보건소 건강정책과,37.46565291,127.0271833,2021-10-14
햇님어린이집,건축물 경계선 반경 10m이내의 도로법에 의한 보도 및 차도,서울특별시,서초구,어린이집,서초구 간접흡연피해방지 조례 제5조(서초구 고시 제2012-91호),10,100000,02-2155-8176,서울특별시 서초구 서리풀6길 28-4(서초동),서울특별시 서초구 서초동 1613-26,서초구보건소 건강정책과,37.48869834,127.0213255,2021-10-14
햇살마루어린이집,건축물 경계선 반경 10m이내의 도로법에 의한 보도 및 차도,서울특별시,서초구,어린이집,서초구 간접흡연피해방지 조례 제5조(서초구 고시 제2012-91호),10,100000,02-2155-8176,"서울특별시 서초구 잠원로 202-11 2동 108호(잠원동, 한신잠원훼미리)",서울특별시 서초구 잠원동 51,서초구보건소 건강정책과,37.51978768,127.0143345,2021-10-14
허니비어린이집,건축물 경계선 반경 10m이내의 도로법에 의한 보도 및 차도,서울특별시,서초구,어린이집,서초구 간접흡연피해방지 조례 제5조(서초구 고시 제2012-91호),10,100000,02-2155-8176,"서울특별시 서초구 서초대로1길 30 105동 101호(방배동, 현대아파트)",서울특별시 서초구 방배동 1344,서초구보건소 건강정책과,37.48923252,126.9836134,2021-10-14
헤브론 어린이집,건축물 경계선 반경 10m이내의 도로법에 의한 보도 및 차도,서울특별시,서초구,어린이집,서초구 간접흡연피해방지 조례 제5조(서초구 고시 제2012-91호),10,100000,02-2155-8176,서울특별시 서초구 동산로13길 35(양재동),서울특별시 서초구 양재동 393-3,서초구보건소 건강정책과,37.47233011,127.0430034,2021-10-14
현대양재어린이집,건축물 경계선 반경 10m이내의 도로법에 의한 보도 및 차도,서울특별시,서초구,어린이집,서초구 간접흡연피해방지 조례 제5조(서초구 고시 제2012-91호),10,100000,02-2155-8176,서울특별시 서초구 염곡말길 17-6(염곡동),서울특별시 서초구 염곡동 106-10,서초구보건소 건강정책과,37.46233242,127.0521308,2021-10-14
구룡 유치원,건축물 경계선 반경 10m이내의 도로법에 의한 보도 및 차도,서울특별시,서초구,유치원,서초구 간접흡연피해방지 조례 제5조(서초구 고시 제2012-91호),10,100000,02-2155-8176,서울특별시 서초구 논현로5길 31-11(양재동),서울특별시 서초구 양재동 399-1,서초구보건소 건강정책과,37.47112511,127.0491534,2021-10-14
동우 유치원,건축물 경계선 반경 10m이내의 도로법에 의한 보도 및 차도,서울특별시,서초구,유치원,서초구 간접흡연피해방지 조례 제5조(서초구 고시 제2012-91호),10,100000,02-2155-8176,서울특별시 서초구 명달로22길 24(서초동),서울특별시 서초구 서초동 1514-2,서초구보건소 건강정책과,37.48642959,127.0055766,2021-10-14
동화 유치원,건축물 경계선 반경 10m이내의 도로법에 의한 보도 및 차도,서울특별시,서초구,유치원,서초구 간접흡연피해방지 조례 제5조(서초구 고시 제2012-91호),10,100000,02-2155-8176,서울특별시 서초구 서초중앙로 24길 43(서초동),서울특별시 서초구 서초동 1687,서초구보건소 건강정책과,37.49588883,127.0185954,2021-10-14
반포성모 유치원,건축물 경계선 반경 10m이내의 도로법에 의한 보도 및 차도,서울특별시,서초구,유치원,서초구 간접흡연피해방지 조례 제5조(서초구 고시 제2012-91호),10,100000,02-2155-8176,서울특별시 서초구 신반포로 15길 18(반포동),서울특별시 서초구 반포동 4-1,서초구보건소 건강정책과,37.5049543,126.9946301,2021-10-14
반포자이 유치원,건축물 경계선 반경 10m이내의 도로법에 의한 보도 및 차도,서울특별시,서초구,유치원,서초구 간접흡연피해방지 조례 제5조(서초구 고시 제2012-91호),10,100000,02-2155-8176,서울특별시 서초구 신반포로 270(반포동),서울특별시 서초구 반포동 20-43,서초구보건소 건강정책과,37.50785869,127.0115816,2021-10-14
반포초병설 유치원,건축물 경계선 반경 10m이내의 도로법에 의한 보도 및 차도,서울특별시,서초구,유치원,서초구 간접흡연피해방지 조례 제5조(서초구 고시 제2012-91호),10,100000,02-2155-8176,서울특별시 서초구 신반포로 55-4(반포동),서울특별시 서초구 반포동 937,서초구보건소 건강정책과,37.50248537,126.9917397,2021-10-14
방배초병설 유치원,건축물 경계선 반경 10m이내의 도로법에 의한 보도 및 차도,서울특별시,서초구,유치원,서초구 간접흡연피해방지 조례 제5조(서초구 고시 제2012-91호),10,100000,02-2155-8176,서울특별시 서초구 방배중앙로 13길 26(방배동),서울특별시 서초구 방배동 861-1,서초구보건소 건강정책과,37.48676419,126.9871372,2021-10-14
새성민 유치원,건축물 경계선 반경 10m이내의 도로법에 의한 보도 및 차도,서울특별시,서초구,유치원,서초구 간접흡연피해방지 조례 제5조(서초구 고시 제2012-91호),10,100000,02-2155-8176,서울특별시 서초구 효령로 110(방배동),서울특별시 서초구 방배동 981-2,서초구보건소 건강정책과,37.48067762,126.9961062,2021-10-14
새순 유치원,건축물 경계선 반경 10m이내의 도로법에 의한 보도 및 차도,서울특별시,서초구,유치원,서초구 간접흡연피해방지 조례 제5조(서초구 고시 제2012-91호),10,100000,02-2155-8176,서울특별시 서초구 서초대로 15길 57(방배동),서울특별시 서초구 방배동 831-12,서초구보건소 건강정책과,37.48906371,126.9885796,2021-10-14
서래초병설 유치원,건축물 경계선 반경 10m이내의 도로법에 의한 보도 및 차도,서울특별시,서초구,유치원,서초구 간접흡연피해방지 조례 제5조(서초구 고시 제2012-91호),10,100000,02-2155-8176,서울특별시 서초구 방배로 260(방배동),서울특별시 서초구 방배동 771,서초구보건소 건강정책과,37.49640526,126.9901572,2021-10-14
서초 유치원,건축물 경계선 반경 10m이내의 도로법에 의한 보도 및 차도,서울특별시,서초구,유치원,서초구 간접흡연피해방지 조례 제5조(서초구 고시 제2012-91호),10,100000,02-2155-8176,서울특별시 서초구 양재대로 2길 100-64(우면동),서울특별시 서초구 우면동 769,서초구보건소 건강정책과,37.45609338,127.0162166,2021-10-14
석문 유치원,건축물 경계선 반경 10m이내의 도로법에 의한 보도 및 차도,서울특별시,서초구,유치원,서초구 간접흡연피해방지 조례 제5조(서초구 고시 제2012-91호),10,100000,02-2155-8176,서울특별시 서초구 서초대로 64길 73(서초동),서울특별시 서초구 서초동 1634-1,서초구보건소 건강정책과,37.49288569,127.0217401,2021-10-14
신반포중앙 유치원,건축물 경계선 반경 10m이내의 도로법에 의한 보도 및 차도,서울특별시,서초구,유치원,서초구 간접흡연피해방지 조례 제5조(서초구 고시 제2012-91호),10,100000,02-2155-8176,서울특별시 서초구 나루터로 4길 58(잠원동),서울특별시 서초구 잠원동 60-3,서초구보건소 건강정책과,37.5104571,127.0125049,2021-10-14
언남초병설 유치원,건축물 경계선 반경 10m이내의 도로법에 의한 보도 및 차도,서울특별시,서초구,유치원,서초구 간접흡연피해방지 조례 제5조(서초구 고시 제2012-91호),10,100000,02-2155-8176,서울특별시 서초구 헌릉로8길 42(내곡동),서울특별시 서초구 내곡동 122,서초구보건소 건강정책과,37.45411333,127.0614366,2021-10-14
여나 유치원,건축물 경계선 반경 10m이내의 도로법에 의한 보도 및 차도,서울특별시,서초구,유치원,서초구 간접흡연피해방지 조례 제5조(서초구 고시 제2012-91호),10,100000,02-2155-8176,서울특별시 서초구 서초중앙로 200(서초동),서울특별시 서초구 서초동 1685,서초구보건소 건강정책과,37.50042675,127.0154753,2021-10-14
영생 유치원,건축물 경계선 반경 10m이내의 도로법에 의한 보도 및 차도,서울특별시,서초구,유치원,서초구 간접흡연피해방지 조례 제5조(서초구 고시 제2012-91호),10,100000,02-2155-8176,서울특별시 서초구 신반포로 19길 30(반포동),서울특별시 서초구 반포동 4-10,서초구보건소 건강정책과,37.5050048,126.9956797,2021-10-14
영유 유치원,건축물 경계선 반경 10m이내의 도로법에 의한 보도 및 차도,서울특별시,서초구,유치원,서초구 간접흡연피해방지 조례 제5조(서초구 고시 제2012-91호),10,100000,02-2155-8176,서울특별시 서초구 효령로 34길 72(방배동),서울특별시 서초구 방배동 1020-3,서초구보건소 건강정책과,37.47863779,127.0007507,2021-10-14
예원유치원,건축물 경계선 반경 10m이내의 도로법에 의한 보도 및 차도,서울특별시,서초구,유치원,서초구 간접흡연피해방지 조례 제5조(서초구 고시 제2012-91호),10,100000,02-2155-8176,서울특별시 서초구 태봉로2길 21(우면동),서울특별시 서초구 우면동 731,서초구보건소 건강정책과,37.46178626,127.024962,2021-10-14
우면초병설 유치원,건축물 경계선 반경 10m이내의 도로법에 의한 보도 및 차도,서울특별시,서초구,유치원,서초구 간접흡연피해방지 조례 제5조(서초구 고시 제2012-91호),10,100000,02-2155-8176,서울특별시 서초구 태봉로 59(우면동),서울특별시 서초구 우면동 690,서초구보건소 건강정책과,37.46470939,127.0237693,2021-10-14
우솔초병설 유치원,건축물 경계선 반경 10m이내의 도로법에 의한 보도 및 차도,서울특별시,서초구,유치원,서초구 간접흡연피해방지 조례 제5조(서초구 고시 제2012-91호),10,100000,02-2155-8176,서울특별시 서초구 양재대로 2길 74(우면동),서울특별시 서초구 우면동 774,서초구보건소 건강정책과,37.45709422,127.0192756,2021-10-14
우암초병설 유치원,건축물 경계선 반경 10m이내의 도로법에 의한 보도 및 차도,서울특별시,서초구,유치원,서초구 간접흡연피해방지 조례 제5조(서초구 고시 제2012-91호),10,100000,02-2155-8176,서울특별시 서초구 바우뫼로 7길 38(우면동),서울특별시 서초구 우면동 58,서초구보건소 건강정책과,37.47229591,127.023722,2021-10-14
우정 유치원,건축물 경계선 반경 10m이내의 도로법에 의한 보도 및 차도,서울특별시,서초구,유치원,서초구 간접흡연피해방지 조례 제5조(서초구 고시 제2012-91호),10,100000,02-2155-8176,서울특별시 서초구 서초대로 70길 32(서초동),서울특별시 서초구 서초동 1324-2,서초구보건소 건강정책과,37.49390576,127.0234303,2021-10-14
원명초병설 유치원,건축물 경계선 반경 10m이내의 도로법에 의한 보도 및 차도,서울특별시,서초구,유치원,서초구 간접흡연피해방지 조례 제5조(서초구 고시 제2012-91호),10,100000,02-2155-8176,서울특별시 서초구 고무래로 90-6(서초동),서울특별시 서초구 서초동 1685-1,서초구보건소 건강정책과,37.50077618,127.0167058,2021-10-14
육영 유치원,건축물 경계선 반경 10m이내의 도로법에 의한 보도 및 차도,서울특별시,서초구,유치원,서초구 간접흡연피해방지 조례 제5조(서초구 고시 제2012-91호),10,100000,02-2155-8176,서울특별시 서초구 방배로 6길 18(방배동),서울특별시 서초구 방배동 1020-10,서초구보건소 건강정책과,37.4791984,127.0004929,2021-10-14
천사유치원,건축물 경계선 반경 10m이내의 도로법에 의한 보도 및 차도,서울특별시,서초구,유치원,서초구 간접흡연피해방지 조례 제5조(서초구 고시 제2012-91호),10,100000,02-2155-8176,서울특별시 서초구 바우뫼로 99(양재동),서울특별시 서초구 양재동 154-2,서초구보건소 건강정책과,37.47478793,127.032084,2021-10-14
청계숲유치원,건축물 경계선 반경 10m이내의 도로법에 의한 보도 및 차도,서울특별시,서초구,유치원,서초구 간접흡연피해방지 조례 제5조(서초구 고시 제2012-91호),10,100000,02-2155-8176,서울특별시 서초구 청계산로11길 14 (신원동),서울특별시 서초구 신원동 247,서초구보건소 건강정책과,37.44779467,127.0577441,2021-10-14
하나 유치원,건축물 경계선 반경 10m이내의 도로법에 의한 보도 및 차도,서울특별시,서초구,유치원,서초구 간접흡연피해방지 조례 제5조(서초구 고시 제2012-91호),10,100000,02-2155-8176,서울특별시 서초구 잠원로 8길 13(잠원동),서울특별시 서초구 잠원동 56-3,서초구보건소 건강정책과,37.5152074,127.0102706,2021-10-14
남부버스터미널,시설전체,서울특별시,서초구,터미널,국민건강증진법 제9조 제4항 제14호,2423,100000,02-2155-8176,서울특별시 서초구 효령로 292(서초동),서울특별시 서초구 서초동 1446-1,서초구보건소 건강정책과,37.48354553,127.0151109,2021-10-14
구립반포도서관,시설전체,서울특별시,서초구,도서관,국민건강증진법 제9조 제4항 제11호,3591,100000,02-2155-8176,서울특별시 서초구 고무래로 34(반포동),서울특별시 서초구 반포동 32-13,서초구보건소 건강정책과,37.50248861,127.0125127,2021-10-14
서울고속버스 터미널,시설전체,서울특별시,서초구,터미널,국민건강증진법 제9조 제4항 제14호,8873,100000,02-2155-8176,서울특별시 서초구 신반포로 194(반포동),서울특별시 서초구 반포동 19-4,서초구보건소 건강정책과,37.50643547,127.0068357,2021-10-14
센트럴시티 터미널,시설전체,서울특별시,서초구,터미널,국민건강증진법 제9조 제4항 제14호,15539,100000,02-2155-8176,서울특별시 서초구 신반포로 176(반포동),서울특별시 서초구 반포동 19-3,서초구보건소 건강정책과,37.50393446,127.0024112,2021-10-14
킴스크럽,시설전체,서울특별시,서초구,대규모점포,국민건강증진법 제9조 제4항 제18호,17112,100000,02-2155-8176,서울특별시 서초구 잠원로 69(잠원동),서울특별시 서초구 잠원동 70-1,서초구보건소 건강정책과,37.5102605,127.0069708,2021-10-14
Dulwich College Seoul,시설전체,서울특별시,서초구,교육연구시설,국민건강증진법 제9조 제4항 제13호,17869,100000,02-2155-8176,서울특별시 서초구 신반포로15길 6(반포동),서울특별시 서초구 반포동 5-1,서초구보건소 건강정책과,37.50429119,126.9953404,2021-10-14
뉴코아백화점,시설전체,서울특별시,서초구,대규모점포,국민건강증진법 제9조 제4항 제18호,31141,100000,02-2155-8176,서울특별시 서초구 잠원로 51(잠원동),서울특별시 서초구 잠원동 70-2,서초구보건소 건강정책과,37.50923936,127.0074377,2021-10-14
KTDS서초어린이집,시설전체,서울특별시,서초구,어린이집,국민건강증진법 제9조 제4항 제9호,500,100000,02-2155-8176,서울특별시 서초구 효령로 176(방배동),서울특별시 서초구 방배동 1001-1,서초구보건소 건강정책과,37.4821697,127.0036406,2021-10-14
KT연구개발센터꿈나무어린이집,시설전체,서울특별시,서초구,어린이집,국민건강증진법 제9조 제4항 제9호,500,100000,02-2155-8176,서울특별시 서초구 태봉로 151(우면동),서울특별시 서초구 우면동 17,서초구보건소 건강정책과,37.47131074,127.0293604,2021-10-14
LG전자강남센터어린이집,시설전체,서울특별시,서초구,어린이집,국민건강증진법 제9조 제4항 제9호,500,100000,02-2155-8176,서울특별시 서초구 강남대로37길 43(서초동),서울특별시 서초구 서초동 1365-8,서초구보건소 건강정책과,37.48465966,127.0310707,2021-10-14
가나안샘터어린이집,시설전체,서울특별시,서초구,어린이집,국민건강증진법 제9조 제4항 제9호,500,100000,02-2155-8176,"서울특별시 서초구 주흥17길 19 101호(반포동, 써니힐아파트 )",서울특별시 서초구 반포동 701-31,서초구보건소 건강정책과,37.50910854,127.0175989,2021-10-14
경기 몬테소리어린이집,시설전체,서울특별시,서초구,어린이집,국민건강증진법 제9조 제4항 제9호,500,100000,02-2155-8176,서울특별시 서초구 서리풀4길 15-5 (서초동),서울특별시 서초구 서초동 1613-19,서초구보건소 건강정책과,37.48835235,127.0213344,2021-10-14
고은아이어린이집,시설전체,서울특별시,서초구,어린이집,국민건강증진법 제9조 제4항 제9호,500,100000,02-2155-8176,"서울특별시 서초구 신반포로33길 15 105동 101호(잠원동, 동아아파트)",서울특별시 서초구 잠원동 157,서초구보건소 건강정책과,37.5090446,127.0095233,2021-10-14
구립서초사랑어린이집,시설전체,서울특별시,서초구,어린이집,국민건강증진법 제9조 제4항 제9호,500,100000,02-2155-8176,서울특별시 서초구 잠원로 213-3(잠원동),서울특별시 서초구 잠원동 49-25,서초구보건소 건강정책과,37.52055888,127.0148324,2021-10-14
국립중앙도서관책사랑어린이집,시설전체,서울특별시,서초구,어린이집,국민건강증진법 제9조 제4항 제9호,500,100000,02-2155-8176,서울특별시 서초구 반포대로 201 국립중앙도서관(반포동),서울특별시 서초구 반포동 산60-1,서초구보건소 건강정책과,37.49742197,127.0032297,2021-10-14
근하어린이집,시설전체,서울특별시,서초구,어린이집,국민건강증진법 제9조 제4항 제9호,500,100000,02-2155-8176,서울특별시 서초구 언남9길 7-11(양재동),서울특별시 서초구 양재동 255-2,서초구보건소 건강정책과,37.47331784,127.0423754,2021-10-14
기쁜어린이집,시설전체,서울특별시,서초구,어린이집,국민건강증진법 제9조 제4항 제9호,500,100000,02-2155-8176,서울특별시 서초구 바우뫼로9길 22-8(우면동),서울특별시 서초구 우면동 50-5,서초구보건소 건강정책과,37.47259807,127.0264533,2021-10-14
까리따스어린이집,시설전체,서울특별시,서초구,어린이집,국민건강증진법 제9조 제4항 제9호,500,100000,02-2155-8176,서울특별시 서초구 남부순환로 2124(방배동),서울특별시 서초구 방배동 3274,서초구보건소 건강정책과,37.47498587,126.9843762,2021-10-14
꼬마숲바른i어린이집,시설전체,서울특별시,서초구,어린이집,국민건강증진법 제9조 제4항 제9호,500,100000,02-2155-8176,"서울특별시 서초구 양재대로2길 90 208동 105호(우면동, LH스타힐스)",서울특별시 서초구 우면동 773,서초구보건소 건강정책과,37.45760689,127.0175687,2021-10-14
꿈꾸는새싹어린이집,시설전체,서울특별시,서초구,어린이집,국민건강증진법 제9조 제4항 제9호,500,100000,02-2155-8176,"서울특별시 서초구 방배선행길 1 108동101호(방배동,우성아파트)",서울특별시 서초구 방배동 2525,서초구보건소 건강정책과,37.47500718,126.9821559,2021-10-14
꿈터어린이집,시설전체,서울특별시,서초구,어린이집,국민건강증진법 제9조 제4항 제9호,500,100000,02-2155-8176,"서울특별시 서초구 바우뫼로 91 101동 101호(양재동, 양재우성아파트)",서울특별시 서초구 양재동 154-2,서초구보건소 건강정책과,37.47504047,127.031799,2021-10-14
나래어린이집,시설전체,서울특별시,서초구,어린이집,국민건강증진법 제9조 제4항 제9호,500,100000,02-2155-8176,"서울특별시 서초구 양재대로2길 33(우면동, 엘에이치서초4단지)",서울특별시 서초구 우면동 788,서초구보건소 건강정책과,37.45820762,127.0240973,2021-10-14
남서울교회어린이집,시설전체,서울특별시,서초구,어린이집,국민건강증진법 제9조 제4항 제9호,500,100000,02-2155-8176,서울특별시 서초구 신반포로 131(반포동),서울특별시 서초구 반포동 1-24,서초구보건소 건강정책과,37.5044967,126.9985478,2021-10-14
남태령어린이집,시설전체,서울특별시,서초구,어린이집,국민건강증진법 제9조 제4항 제9호,500,100000,02-2155-8176,서울특별시 서초구 전원말길 6(방배동),서울특별시 서초구 방배동 2877,서초구보건소 건강정책과,37.46589698,126.9887866,2021-10-14
내곡어린이집,시설전체,서울특별시,서초구,어린이집,국민건강증진법 제9조 제4항 제9호,500,100000,02-2155-8176,서울특별시 서초구 홍씨마을길 25(내곡동),서울특별시 서초구 내곡동 156-4,서초구보건소 건강정책과,37.45319672,127.0654742,2021-10-14
늘사랑어린이집,시설전체,서울특별시,서초구,어린이집,국민건강증진법 제9조 제4항 제9호,500,100000,02-2155-8176,"서울특별시 서초구 신반포로19길 10 22동 103호(반포동, 신반포한신아파트)",서울특별시 서초구 반포동 1-1,서초구보건소 건강정책과,37.50839982,,2021-10-14
늘푸른아이들어린이집,시설전체,서울특별시,서초구,어린이집,국민건강증진법 제9조 제4항 제9호,500,100000,02-2155-8176,"서울특별시 서초구 신반포로15길 4 101동 101호(반포동, 반포대우아파트)",서울특별시 서초구 반포동 10,서초구보건소 건강정책과,37.50414349,126.9974531,2021-10-14
늘푸른어린이집,시설전체,서울특별시,서초구,어린이집,국민건강증진법 제9조 제4항 제9호,500,100000,02-2155-8176,"서울특별시 서초구 신반포로33길 64 2동 101호(잠원동, 잠원한신로얄아파트)",서울특별시 서초구 잠원동 63-34,서초구보건소 건강정책과,37.51331182,127.0086868,2021-10-14
니꼴라오어린이집,시설전체,서울특별시,서초구,어린이집,국민건강증진법 제9조 제4항 제9호,500,100000,02-2155-8176,서울특별시 서초구 논현로5길 28(양재동),서울특별시 서초구 양재동 396-2,서초구보건소 건강정책과,37.47206501,127.0481854,2021-10-14
다솜어린이집,시설전체,서울특별시,서초구,어린이집,국민건강증진법 제9조 제4항 제9호,500,100000,02-2155-8176,서울특별시 서초구 반포대로 180(서초동),서울특별시 서초구 서초동 1724,서초구보건소 건강정책과,37.49583968,127.0061563,2021-10-14
도담도담어린이집,시설전체,서울특별시,서초구,어린이집,국민건강증진법 제9조 제4항 제9호,500,100000,02-2155-8176,"서울특별시 서초구 헌릉로8길 45 203동 101호 (내곡동, 서초포레스타2단지)",서울특별시 서초구 내곡동 143,서초구보건소 건강정책과,37.45469039,127.062546,2021-10-14
도담어린이집,시설전체,서울특별시,서초구,어린이집,국민건강증진법 제9조 제4항 제9호,500,100000,02-2155-8176,"서울특별시 서초구 태봉로2길 65(우면동, 서초네이처힐4단지)",서울특별시 서초구 우면동 720,서초구보건소 건강정책과,37.46412511,127.0257857,2021-10-14
도레미어린이집,시설전체,서울특별시,서초구,어린이집,국민건강증진법 제9조 제4항 제9호,500,100000,02-2155-8176,서울특별시 서초구 효령로8길 24(방배동),서울특별시 서초구 방배동 476-22,서초구보건소 건강정책과,37.47702985,126.9886888,2021-10-14
동아어린이집,시설전체,서울특별시,서초구,어린이집,국민건강증진법 제9조 제4항 제9호,500,100000,02-2155-8176,"서울특별시 서초구 신반포로33길 15 103동 103호(잠원동, 동아아파트)",서울특별시 서초구 잠원동 157,서초구보건소 건강정책과,37.5090446,127.0095233,2021-10-14
드림빅스맘어린이집,시설전체,서울특별시,서초구,어린이집,국민건강증진법 제9조 제4항 제9호,500,100000,02-2155-8176,"서울특별시 서초구 태봉로2길 60 308동 104호(우면동, 서초네이처힐3단지)",서울특별시 서초구 우면동 717,서초구보건소 건강정책과,37.46565291,127.0271833,2021-10-14
또래어린이집,시설전체,서울특별시,서초구,어린이집,국민건강증진법 제9조 제4항 제9호,500,100000,02-2155-8176,"서울특별시 서초구 신반포로33길 15 101동 105호(잠원동, 동아아파트)",서울특별시 서초구 잠원동 157,서초구보건소 건강정책과,37.5090446,127.0095233,2021-10-14
라라라어린이집,시설전체,서울특별시,서초구,어린이집,국민건강증진법 제9조 제4항 제9호,500,100000,02-2155-8176,"서울특별시 서초구 양재대로2길 11 502동 104호(우면동, 엘에이치서초5단지)",서울특별시 서초구 우면동 789,서초구보건소 건강정책과,37.45912995,127.0255398,2021-10-14
락앤락샛별어린이집,시설전체,서울특별시,서초구,어린이집,국민건강증진법 제9조 제4항 제9호,500,100000,02-2155-8176,서울특별시 서초구 서리풀3길 21(서초동),서울특별시 서초구 서초동 1618-2,서초구보건소 건강정책과,37.48766808,127.0183537,2021-10-14
롯데건설어린이집,시설전체,서울특별시,서초구,어린이집,국민건강증진법 제9조 제4항 제9호,500,100000,02-2155-8176,서울특별시 서초구 강남대로101안길 33(잠원동),서울특별시 서초구 잠원동 15-3,서초구보건소 건강정책과,37.5158157,127.0170394,2021-10-14
리체꿈나라 어린이집,시설전체,서울특별시,서초구,어린이집,국민건강증진법 제9조 제4항 제9호,500,100000,02-2155-8176,서울특별시 서초구 고무래로 35(반포동),서울특별시 서초구 반포동 30-26,서초구보건소 건강정책과,37.50446722,127.0124542,2021-10-14
리틀밥어린이집,시설전체,서울특별시,서초구,어린이집,국민건강증진법 제9조 제4항 제9호,500,100000,02-2155-8176,"서울특별시 서초구 신반포로23길 41 105동 110호(잠원동, 신반포한신아파트)",서울특별시 서초구 잠원동 73,서초구보건소 건강정책과,37.51165781,127.0044694,2021-10-14
미소담은어린이집,시설전체,서울특별시,서초구,어린이집,국민건강증진법 제9조 제4항 제9호,500,100000,02-2155-8176,"서울특별시 서초구 바우뫼로 89 105동 105호(양재동, 우성아파트)",서울특별시 서초구 양재동 154-2,서초구보건소 건강정책과,37.47504047,127.031799,2021-10-14
바로미어린이집,시설전체,서울특별시,서초구,어린이집,국민건강증진법 제9조 제4항 제9호,500,100000,02-2155-8176,서울특별시 서초구 서초중앙로 157 서울법원종합청사별관 (서초동),서울특별시 서초구 서초동 1701-1,서초구보건소 건강정책과,37.49827564,127.0111232,2021-10-14
바름이어린이집,시설전체,서울특별시,서초구,어린이집,국민건강증진법 제9조 제4항 제9호,500,100000,02-2155-8176,서울특별시 서초구 서초대로45길 20(서초동),서울특별시 서초구 서초동 1706-4,서초구보건소 건강정책과,37.49414561,127.008965,2021-10-14
반포1동어린이집,시설전체,서울특별시,서초구,어린이집,국민건강증진법 제9조 제4항 제9호,500,100000,02-2155-8176,서울특별시 서초구 신반포로 318(반포동),서울특별시 서초구 반포동 703-1,서초구보건소 건강정책과,37.51000049,127.0184813,2021-10-14
반포복지관어린이집,시설전체,서울특별시,서초구,어린이집,국민건강증진법 제9조 제4항 제9호,500,100000,02-2155-8176,서울특별시 서초구 사평대로55길 90(반포동),서울특별시 서초구 반포동 724-12,서초구보건소 건강정책과,37.5078779,127.0212379,2021-10-14
반포어린이집,시설전체,서울특별시,서초구,어린이집,국민건강증진법 제9조 제4항 제9호,500,100000,02-2155-8176,서울특별시 서초구 사평대로20길 54(반포동),서울특별시 서초구 반포동 107-87,서초구보건소 건강정책과,37.49702913,126.9967386,2021-10-14
반포예원어린이집,시설전체,서울특별시,서초구,어린이집,국민건강증진법 제9조 제4항 제9호,500,100000,02-2155-8176,"서울특별시 서초구 사평대로 240 502동 104호(반포동, 미도2차아파트)",서울특별시 서초구 반포동 60-5,서초구보건소 건강정책과,37.50288909,127.0073194,2021-10-14
반포자이어린이집,시설전체,서울특별시,서초구,어린이집,국민건강증진법 제9조 제4항 제9호,500,100000,02-2155-8176,"서울특별시 서초구 신반포로 270 129동 103호(반포동, 반포자이아파트)",서울특별시 서초구 반포동 20-43,서초구보건소 건강정책과,37.50785869,127.0115816,2021-10-14
반포퍼스티지 하늘어린이집,시설전체,서울특별시,서초구,어린이집,국민건강증진법 제9조 제4항 제9호,500,100000,02-2155-8176,서울특별시 서초구 반포대로 275(반포동),서울특별시 서초구 반포동 18-1,서초구보건소 건강정책과,37.50239189,126.9959648,2021-10-14
반포퍼스티지솔마을 어린이집,시설전체,서울특별시,서초구,어린이집,국민건강증진법 제9조 제4항 제9호,500,100000,02-2155-8176,"서울특별시 서초구 반포대로 275(반포동, 래미안퍼스티지아파트)",서울특별시 서초구 반포동 18-1,서초구보건소 건강정책과,37.50239189,126.9959648,2021-10-14
방배본동 행복한 어린이집,시설전체,서울특별시,서초구,어린이집,국민건강증진법 제9조 제4항 제9호,500,100000,02-2155-8176,서울특별시 서초구 동광로11길 86(방배동),서울특별시 서초구 방배동 768-5,서초구보건소 건강정책과,37.49501003,126.9854984,2021-10-14
방배안데르센어린이집,시설전체,서울특별시,서초구,어린이집,국민건강증진법 제9조 제4항 제9호,500,100000,02-2155-8176,"서울특별시 서초구 과천대로 946 105동 105호(방배동, 방배우성아파트)",서울특별시 서초구 방배동 2525,서초구보건소 건강정책과,37.47500718,126.9821559,2021-10-14
방배어린이집,시설전체,서울특별시,서초구,어린이집,국민건강증진법 제9조 제4항 제9호,500,100000,02-2155-8176,서울특별시 서초구 방배로19길 36-8(방배동),서울특별시 서초구 방배동 321-10,서초구보건소 건강정책과,37.48509242,126.9930667,2021-10-14
방배하나어린이집,시설전체,서울특별시,서초구,어린이집,국민건강증진법 제9조 제4항 제9호,500,100000,02-2155-8176,서울특별시 서초구 서초대로14길 28(방배동),서울특별시 서초구 방배동 962-34,서초구보건소 건강정책과,37.48448672,126.9899145,2021-10-14
베베어린이집,시설전체,서울특별시,서초구,어린이집,국민건강증진법 제9조 제4항 제9호,500,100000,02-2155-8176,"서울특별시 서초구 잠원로4길 34-11 101동 101호(잠원동, 녹원한신아파트)",서울특별시 서초구 잠원동 60-7,서초구보건소 건강정책과,37.51221956,127.0115325,2021-10-14
별어린이집,시설전체,서울특별시,서초구,어린이집,국민건강증진법 제9조 제4항 제9호,500,100000,02-2155-8176,"서울특별시 서초구 사임당로 130 5동 108호(서초동, 신동아아파트)",서울특별시 서초구 서초동 1334,서초구보건소 건강정책과,37.49162785,127.0242301,2021-10-14
별하어린이집,시설전체,서울특별시,서초구,어린이집,국민건강증진법 제9조 제4항 제9호,500,100000,02-2155-8176,"서울특별시 서초구 태봉로2길 30 607동 102호(우면동, 서초네이처힐6단지)",서울특별시 서초구 우면동 737,서초구보건소 건강정책과,37.4611518,127.025649,2021-10-14
봄꽃나라어린이집,시설전체,서울특별시,서초구,어린이집,국민건강증진법 제9조 제4항 제9호,500,100000,02-2155-8176,"서울특별시 서초구 잠원로14길 41 324동106호(잠원동,신반포한신아파트)",서울특별시 서초구 잠원동 50-5,서초구보건소 건강정책과,37.51649721,127.0143746,2021-10-14
사랑의어린이집,시설전체,서울특별시,서초구,어린이집,국민건강증진법 제9조 제4항 제9호,500,100000,02-2155-8176,서울특별시 서초구 신반포로33길 22(잠원동),서울특별시 서초구 잠원동 60-5,서초구보건소 건강정책과,37.50995268,127.0109938,2021-10-14
산성몬테소리어린이집,시설전체,서울특별시,서초구,어린이집,국민건강증진법 제9조 제4항 제9호,500,100000,02-2155-8176,서울특별시 서초구 사평대로 253(반포동),서울특별시 서초구 반포동 20-15,서초구보건소 건강정책과,37.50524943,127.0110383,2021-10-14
삼성전자서울R&D캠퍼스어린이집,시설전체,서울특별시,서초구,어린이집,국민건강증진법 제9조 제4항 제9호,500,100000,02-2155-8176,서울특별시 서초구 성촌길 67(우면동),서울특별시 서초구 우면동 685,서초구보건소 건강정책과,37.46571539,127.0212602,2021-10-14
새롬키즈어린이집,시설전체,서울특별시,서초구,어린이집,국민건강증진법 제9조 제4항 제9호,500,100000,02-2155-8176,서울특별시 서초구 서초대로6길 46(방배동),서울특별시 서초구 방배동 958-20,서초구보건소 건강정책과,37.483153,126.9876217,2021-10-14
새싹빅스맘어린이집,시설전체,서울특별시,서초구,어린이집,국민건강증진법 제9조 제4항 제9호,500,100000,02-2155-8176,"서울특별시 서초구 형촌길 15 208동 101호(우면동, 서초네이처힐아파트)",서울특별시 서초구 우면동 712,서초구보건소 건강정책과,37.46329893,127.021463,2021-10-14
새싹어린이집,시설전체,서울특별시,서초구,어린이집,국민건강증진법 제9조 제4항 제9호,500,100000,02-2155-8176,"서울특별시 서초구 잠원로 37-48 203동 104호(잠원동,신반포4차 아파트)",서울특별시 서초구 잠원동 73,서초구보건소 건강정책과,37.51165781,127.0044694,2021-10-14
샤이닝키즈어린이집,시설전체,서울특별시,서초구,어린이집,국민건강증진법 제9조 제4항 제9호,500,100000,02-2155-8176,서울특별시 서초구 서초대로74길 30 (서초동),서울특별시 서초구 서초동 1326-17,서초구보건소 건강정책과,37.49509077,127.026805,2021-10-14
서울발트킨더어린이집,시설전체,서울특별시,서초구,어린이집,국민건강증진법 제9조 제4항 제9호,500,100000,02-2155-8176,"서울특별시 서초구 헌릉로8길 10-12 107동(신원동, 힐스테이트서초젠트리스)",서울특별시 서초구 신원동 412-5,서초구보건소 건강정책과,37.45594694,127.0579402,2021-10-14
서울성모병원어린이집,시설전체,서울특별시,서초구,어린이집,국민건강증진법 제9조 제4항 제9호,500,100000,02-2155-8176,서울특별시 서초구 반포대로 222(반포동),서울특별시 서초구 반포동 505,서초구보건소 건강정책과,37.50239362,127.0058443,2021-10-14
서울시인재개발원 쑥쑥어린이집,시설전체,서울특별시,서초구,어린이집,국민건강증진법 제9조 제4항 제9호,500,100000,02-2155-8176,서울특별시 서초구 남부순환로340길 58(서초동),서울특별시 서초구 서초동 391,서초구보건소 건강정책과,37.48119434,127.0234353,2021-10-14
서정어린이집,시설전체,서울특별시,서초구,어린이집,국민건강증진법 제9조 제4항 제9호,500,100000,02-2155-8176,서울특별시 서초구 방배천로 48(방배동),서울특별시 서초구 방배동 455-11,서초구보건소 건강정책과,37.48076653,126.9827876,2021-10-14
서초1삼성어린이집,시설전체,서울특별시,서초구,어린이집,국민건강증진법 제9조 제4항 제9호,500,100000,02-2155-8176,서울특별시 서초구 서초대로74길 11(서초동),서울특별시 서초구 서초동 1320-10,서초구보건소 건강정책과,37.49663327,127.0269141,2021-10-14
서초2삼성어린이집,시설전체,서울특별시,서초구,어린이집,국민건강증진법 제9조 제4항 제9호,500,100000,02-2155-8176,서울특별시 서초구 서초대로74길 14(서초동),서울특별시 서초구 서초동 1321-20,서초구보건소 건강정책과,37.49595949,127.0261223,2021-10-14
서초구 육아종합지원센터,시설전체,서울특별시,서초구,어린이집,국민건강증진법 제9조 제4항 제9호,500,100000,02-2155-8176,서울특별시 서초구 남부순환로347길 46(서초동),서울특별시 서초구 서초동 1360-26,서초구보건소 건강정책과,37.48642194,127.0314197,2021-10-14
서초구립 내곡연두어린이집,시설전체,서울특별시,서초구,어린이집,국민건강증진법 제9조 제4항 제9호,500,100000,02-2155-8176,서울특별시 서초구 헌릉로 226(내곡동),서울특별시 서초구 내곡동 184-1,서초구보건소 건강정책과,37.4549486,127.0649242,2021-10-14
서초구립 느티나무어린이집,시설전체,서울특별시,서초구,어린이집,국민건강증진법 제9조 제4항 제9호,500,100000,02-2155-8176,서울특별시 서초구 사임당로19길 126(서초동),서울특별시 서초구 서초동 1643-44,서초구보건소 건강정책과,37.49232424,127.0199063,2021-10-14
서초구립 도구머리어린이집,시설전체,서울특별시,서초구,어린이집,국민건강증진법 제9조 제4항 제9호,500,100000,02-2155-8176,서울특별시 서초구 청두곶2길 33(방배동),서울특별시 서초구 방배동 산75-3,서초구보건소 건강정책과,37.47862269,126.9871929,2021-10-14
서초구립 래미안서초에스티지S어린이집,시설전체,서울특별시,서초구,어린이집,국민건강증진법 제9조 제4항 제9호,500,100000,02-2155-8176,서울특별시 서초구 서운로 104(서초동),서울특별시 서초구 서초동 1331,서초구보건소 건강정책과,37.4934156,127.0264914,2021-10-14
서초구립 리본타워2단지어린이집,시설전체,서울특별시,서초구,어린이집,국민건강증진법 제9조 제4항 제9호,500,100000,02-2155-8176,"서울특별시 서초구 매헌로16길 40(양재동, 양재리본타워2단지)",서울특별시 서초구 양재동 212,서초구보건소 건강정책과,37.46492969,127.0361718,2021-10-14
서초구립 리본타워어린이집,시설전체,서울특별시,서초구,어린이집,국민건강증진법 제9조 제4항 제9호,500,100000,02-2155-8176,"서울특별시 서초구 바우뫼로18길 20 101동(양재동, 양재리본타워1단지)",서울특별시 서초구 양재동 102,서초구보건소 건강정책과,37.47288858,127.0321465,2021-10-14
서초구립 반포1동주민센터어린이집,시설전체,서울특별시,서초구,어린이집,국민건강증진법 제9조 제4항 제9호,500,100000,02-2155-8176,서울특별시 서초구 사평대로 273(반포동),서울특별시 서초구 반포동 20-48,서초구보건소 건강정책과,37.50509422,127.0133771,2021-10-14
서초구립 반포단비어린이집,시설전체,서울특별시,서초구,어린이집,국민건강증진법 제9조 제4항 제9호,500,100000,02-2155-8176,서울특별시 서초구 주흥13길 12(반포동),서울특별시 서초구 반포동 711-11,서초구보건소 건강정책과,37.50867952,127.0185488,2021-10-14
서초구립 반포미도어린이집,시설전체,서울특별시,서초구,어린이집,국민건강증진법 제9조 제4항 제9호,500,100000,02-2155-8176,"서울특별시 서초구 서초중앙로29길 28 303동 108호(반포동, 반포미도아파트)",서울특별시 서초구 반포동 60-4,서초구보건소 건강정책과,37.49997334,127.0087079,2021-10-14
서초구립 반포본동초롱어린이집,시설전체,서울특별시,서초구,어린이집,국민건강증진법 제9조 제4항 제9호,500,100000,02-2155-8176,"서울특별시 서초구 신반포로 9 85동 103호(반포동, 반포아파트)",서울특별시 서초구 반포동 821,서초구보건소 건강정책과,37.50159101,126.9857685,2021-10-14
서초구립 반포본동푸른어린이집,시설전체,서울특별시,서초구,어린이집,국민건강증진법 제9조 제4항 제9호,500,100000,02-2155-8176,"서울특별시 서초구 신반포로 45 66동 102호(반포동, 반포아파트)",서울특별시 서초구 반포동 758,서초구보건소 건강정책과,37.50528188,126.9890702,2021-10-14
서초구립 방배1동초록꿈어린이집,시설전체,서울특별시,서초구,어린이집,국민건강증진법 제9조 제4항 제9호,500,100000,02-2155-8176,서울특별시 서초구 효령로23길 16(방배동),서울특별시 서초구 방배동 916-7,서초구보건소 건강정책과,37.48116407,126.9939761,2021-10-14
서초구립 방배4동어린이집,시설전체,서울특별시,서초구,어린이집,국민건강증진법 제9조 제4항 제9호,500,100000,02-2155-8176,서울특별시 서초구 서초대로19길 16(방배동),서울특별시 서초구 방배동 873-4,서초구보건소 건강정책과,37.48782776,126.9912619,2021-10-14
서초구립 방배본동신나는어린이집,시설전체,서울특별시,서초구,어린이집,국민건강증진법 제9조 제4항 제9호,500,100000,02-2155-8176,서울특별시 서초구 동광로11길 23(방배동),서울특별시 서초구 방배동 789-18,서초구보건소 건강정책과,37.49222415,126.9858517,2021-10-14
서초구립 서리풀어린이집,시설전체,서울특별시,서초구,어린이집,국민건강증진법 제9조 제4항 제9호,500,100000,02-2155-8176,서울특별시 서초구 반포대로 121(서초동),서울특별시 서초구 서초동 1541-1,서초구보건소 건강정책과,37.49072187,127.0076439,2021-10-14
서초구립 서울교육대학교사향어린이집,시설전체,서울특별시,서초구,어린이집,국민건강증진법 제9조 제4항 제9호,500,100000,02-2155-8176,서울특별시 서초구 서초중앙로 96(서초동),서울특별시 서초구 서초동 1650,서초구보건소 건강정책과,37.49074049,127.0154245,2021-10-14
서초구립 서초1동하은어린이집,시설전체,서울특별시,서초구,어린이집,국민건강증진법 제9조 제4항 제9호,500,100000,02-2155-8176,서울특별시 서초구 서초대로58길 35-6(서초동),서울특별시 서초구 서초동 1668,서초구보건소 건강정책과,37.49318586,127.0182917,2021-10-14
서초구립 서초3단지어린이집,시설전체,서울특별시,서초구,어린이집,국민건강증진법 제9조 제4항 제9호,500,100000,02-2155-8176,"서울특별시 서초구 양재대로2길 34(우면동, 엘에이치서초3단지)",서울특별시 서초구 우면동 784,서초구보건소 건강정책과,37.45758089,127.0221666,2021-10-14
서초구립 서초3동 어린이집,시설전체,서울특별시,서초구,어린이집,국민건강증진법 제9조 제4항 제9호,500,100000,02-2155-8176,서울특별시 서초구 반포대로13길 64(서초동),서울특별시 서초구 서초동 1522-6,서초구보건소 건강정책과,37.48521852,127.0075981,2021-10-14
서초구립 서초4동삼풍어린이집,시설전체,서울특별시,서초구,어린이집,국민건강증진법 제9조 제4항 제9호,500,100000,02-2155-8176,"서울특별시 서초구 서초중앙로 200 5동, 103호(서초동, 삼풍아파트)",서울특별시 서초구 서초동 1685,서초구보건소 건강정책과,37.50042675,127.0154753,2021-10-14
서초구립 서초4동써밋1어린이집,시설전체,서울특별시,서초구,어린이집,국민건강증진법 제9조 제4항 제9호,500,100000,02-2155-8176,"서울특별시 서초구 서운로 201 (서초동, 푸르지오써밋아파트)",서울특별시 서초구 서초동 1311,서초구보건소 건강정책과,37.50132345,127.0201258,2021-10-14
서초구립 서초4동써밋2어린이집,시설전체,서울특별시,서초구,어린이집,국민건강증진법 제9조 제4항 제9호,500,100000,02-2155-8176,"서울특별시 서초구 서운로 212 (서초동, 서초푸르지오써밋아파트)",서울특별시 서초구 서초동 1310,서초구보건소 건강정책과,37.50185644,127.022424,2021-10-14
서초구립 서초4동행복어린이집,시설전체,서울특별시,서초구,어린이집,국민건강증진법 제9조 제4항 제9호,500,100000,02-2155-8176,"서울특별시 서초구 서초중앙로 200 3동 106호(서초동, 삼풍아파트)",서울특별시 서초구 서초동 1685,서초구보건소 건강정책과,37.50042675,127.0154753,2021-10-14
서초구립 서초성모어린이집,시설전체,서울특별시,서초구,어린이집,국민건강증진법 제9조 제4항 제9호,500,100000,02-2155-8176,서울특별시 서초구 고무래로8길 21(반포동),서울특별시 서초구 반포동 54-9,서초구보건소 건강정책과,37.50107971,127.0095087,2021-10-14
서초구립 아람어린이집,시설전체,서울특별시,서초구,어린이집,국민건강증진법 제9조 제4항 제9호,500,100000,02-2155-8176,"서울특별시 서초구 태봉로2길 5 505동(우면동, 서초네이처힐5단지)",서울특별시 서초구 우면동 730,서초구보건소 건강정책과,37.46297935,127.0242164,2021-10-14
서초구립 아르떼어린이집,시설전체,서울특별시,서초구,어린이집,국민건강증진법 제9조 제4항 제9호,500,100000,02-2155-8176,"서울특별시 서초구 방배천로18길 11(방배동, 방배롯데캐슬아르떼)",서울특별시 서초구 방배동 424-28 방배롯데캐슬아르떼 관리동,서초구보건소 건강정책과,37.48360655,126.9831036,2021-10-14
서초구립 아이숲어린이집,시설전체,서울특별시,서초구,어린이집,국민건강증진법 제9조 제4항 제9호,500,100000,02-2155-8176,"서울특별시 서초구 청계산로9길 1-12 602동(신원동, 서초포레스타6단지)",서울특별시 서초구 신원동 285,서초구보건소 건강정책과,37.44968392,127.0562402,2021-10-14
서초구립 아크로달어린이집,시설전체,서울특별시,서초구,어린이집,국민건강증진법 제9조 제4항 제9호,500,100000,02-2155-8176,"서울특별시 서초구 신반포로15길 19 104동(반포동, 아크로리버파크)",서울특별시 서초구 반포동 2-12,서초구보건소 건강정책과,37.50625164,126.9926712,2021-10-14
서초구립 아크로별어린이집,시설전체,서울특별시,서초구,어린이집,국민건강증진법 제9조 제4항 제9호,500,100000,02-2155-8176,"서울특별시 서초구 신반포로15길 19 100동(반포동, 아크로리버파크)",서울특별시 서초구 반포동 2-12,서초구보건소 건강정책과,37.50625164,126.9926712,2021-10-14
서초구립 아크로해어린이집,시설전체,서울특별시,서초구,어린이집,국민건강증진법 제9조 제4항 제9호,500,100000,02-2155-8176,"서울특별시 서초구 신반포로15길 19 106동(반포동, 아크로리버파크)",서울특별시 서초구 반포동 2-12,서초구보건소 건강정책과,37.50625164,126.9926712,2021-10-14
서초구립 양재목련어린이집,시설전체,서울특별시,서초구,어린이집,국민건강증진법 제9조 제4항 제9호,500,100000,02-2155-8176,서울특별시 서초구 언남16길 37(양재동),서울특별시 서초구 양재동 300-11,서초구보건소 건강정책과,37.47348208,127.0464951,2021-10-14
서초구립 양재별하어린이집,시설전체,서울특별시,서초구,어린이집,국민건강증진법 제9조 제4항 제9호,500,100000,02-2155-8176,서울특별시 서초구 논현로5길 15-5(양재동),서울특별시 서초구 양재동 401-12,서초구보건소 건강정책과,37.47197081,127.0493972,2021-10-14
서초구립 에스티지하늘어린이집,시설전체,서울특별시,서초구,어린이집,국민건강증진법 제9조 제4항 제9호,500,100000,02-2155-8176,"서울특별시 서초구 서운로 107 1층(서초동, 래미안서초에스티지)",서울특별시 서초구 서초동 1332-13,서초구보건소 건강정책과,37.49300713,127.0254533,2021-10-14
서초구립 잠원동어린이집,시설전체,서울특별시,서초구,어린이집,국민건강증진법 제9조 제4항 제9호,500,100000,02-2155-8176,서울특별시 서초구 강남대로95길 75(잠원동),서울특별시 서초구 잠원동 34-8,서초구보건소 건강정책과,37.51187294,127.0168349,2021-10-14
서초구립 잠원햇살어린이집,시설전체,서울특별시,서초구,어린이집,국민건강증진법 제9조 제4항 제9호,500,100000,02-2155-8176,"서울특별시 서초구 잠원로8길 25(잠원동, 래미안신반포팰리스)",서울특별시 서초구 잠원동 158,서초구보건소 건강정책과,37.5144017,127.0114966,2021-10-14
서초구립 포레스타2단지어린이집,시설전체,서울특별시,서초구,어린이집,국민건강증진법 제9조 제4항 제9호,500,100000,02-2155-8176,서울특별시 서초구 헌릉로8길 45(내곡동),서울특별시 서초구 내곡동 143,서초구보건소 건강정책과,37.45469039,127.062546,2021-10-14
서초구립 포레스타3단지어린이집,시설전체,서울특별시,서초구,어린이집,국민건강증진법 제9조 제4항 제9호,500,100000,02-2155-8176,"서울특별시 서초구 헌릉로8길 22 305동(신원동, 서초포레스타3단지)",서울특별시 서초구 신원동 408,서초구보건소 건강정책과,37.45526877,127.0591784,2021-10-14
서초구립 포레스타5단지어린이집,시설전체,서울특별시,서초구,어린이집,국민건강증진법 제9조 제4항 제9호,500,100000,02-2155-8176,"서울특별시 서초구 청계산로7길 43 510동(신원동, 서초포레스타5단지)",서울특별시 서초구 신원동 374,서초구보건소 건강정책과,37.45114287,127.0576834,2021-10-14
서초구립 포레스타6단지어린이집,시설전체,서울특별시,서초구,어린이집,국민건강증진법 제9조 제4항 제9호,500,100000,02-2155-8176,"서울특별시 서초구 청계산로9길 1-12(신원동, 서초포레스타6단지)",서울특별시 서초구 신원동 285,서초구보건소 건강정책과,37.44968392,127.0562402,2021-10-14
서초구립 포레스타7단지어린이집,시설전체,서울특별시,서초구,어린이집,국민건강증진법 제9조 제4항 제9호,500,100000,02-2155-8176,"서울특별시 서초구 청계산로11길 7-12 708동(신원동, 서초포레스타7단지)",서울특별시 서초구 신원동 266,서초구보건소 건강정책과,37.44855233,127.0560631,2021-10-14
서초구립네이처힐1단지어린이집,시설전체,서울특별시,서초구,어린이집,국민건강증진법 제9조 제4항 제9호,500,100000,02-2155-8176,"서울특별시 서초구 형촌길 35 109동(우면동, 서초네이처힐1단지)",서울특별시 서초구 우면동 707,서초구보건소 건강정책과,37.46410836,127.0191075,2021-10-14
서초구립네이처힐3단지어린이집,시설전체,서울특별시,서초구,어린이집,국민건강증진법 제9조 제4항 제9호,500,100000,02-2155-8176,"서울특별시 서초구 태봉로2길 60 307동(우면동, 서초네이처힐3단지)",서울특별시 서초구 우면동 717,서초구보건소 건강정책과,37.46565291,127.0271833,2021-10-14
서초구립네이처힐6단지어린이집,시설전체,서울특별시,서초구,어린이집,국민건강증진법 제9조 제4항 제9호,500,100000,02-2155-8176,"서울특별시 서초구 태봉로2길 30 601동(우면동, 서초네이처힐6단지)",서울특별시 서초구 우면동 737,서초구보건소 건강정책과,37.4611518,127.025649,2021-10-14
서초구립반포서래어린이집,시설전체,서울특별시,서초구,어린이집,국민건강증진법 제9조 제4항 제9호,500,100000,02-2155-8176,서울특별시 서초구 사평대로28길 70(반포동),서울특별시 서초구 반포4동 74-7,서초구보건소 건강정책과,37.49748688,127.0003302,2021-10-14
서초구립방배열린어린이집,시설전체,서울특별시,서초구,어린이집,국민건강증진법 제9조 제4항 제9호,500,100000,02-2155-8176,서울특별시 서초구 방배로 173 방배열린문화센터 (방배동),서울특별시 서초구 방배동 852-14,서초구보건소 건강정책과,37.48900635,126.9922432,2021-10-14
서초구립신반포어린이집,시설전체,서울특별시,서초구,어린이집,국민건강증진법 제9조 제4항 제9호,500,100000,02-2155-8176,서울특별시 서초구 신반포로19길 26 신반포중학교(반포동),서울특별시 서초구 반포동 3-1,서초구보건소 건강정책과,37.50626622,126.996123,2021-10-14
서초구립예아어린이집,시설전체,서울특별시,서초구,어린이집,국민건강증진법 제9조 제4항 제9호,500,100000,02-2155-8176,서울특별시 서초구 방배천로18길 36-8(방배동),서울특별시 서초구 방배동 436-5,서초구보건소 건강정책과,37.4823994,126.9845737,2021-10-14
서초구립하나푸르니반포어린이집,시설전체,서울특별시,서초구,어린이집,국민건강증진법 제9조 제4항 제9호,500,100000,02-2155-8176,서울특별시 서초구 서초중앙로33길 10(반포동),서울특별시 서초구 반포동 53-6,서초구보건소 건강정책과,37.5013463,127.0107482,2021-10-14
서초구청어린이집,시설전체,서울특별시,서초구,어린이집,국민건강증진법 제9조 제4항 제9호,500,100000,02-2155-8176,서울특별시 서초구 남부순환로347길 46(서초동),서울특별시 서초구 서초동 1360-26,서초구보건소 건강정책과,37.48642194,127.0314197,2021-10-14
서초꿈아이자람어린이집,시설전체,서울특별시,서초구,어린이집,국민건강증진법 제9조 제4항 제9호,500,100000,02-2155-8176,서울특별시 서초구 남부순환로347길 21-20(서초동),서울특별시 서초구 서초동 1364-31,서초구보건소 건강정책과,37.48525447,127.0305146,2021-10-14
서초남서울어린이집,시설전체,서울특별시,서초구,어린이집,국민건강증진법 제9조 제4항 제9호,500,100000,02-2155-8176,서울특별시 서초구 반포대로 310-5(잠원동),"서울특별시 서초구 잠원동 76-9, 10",서초구보건소 건강정책과,37.50686455,127.0008912,2021-10-14
서초더샵포레어린이집,시설전체,서울특별시,서초구,어린이집,국민건강증진법 제9조 제4항 제9호,500,100000,02-2155-8176,"서울특별시 서초구 헌릉로8길 58 104동(내곡동, 서초더샵포레)",서울특별시 서초구 내곡동 77,서초구보건소 건강정책과,37.4532452,127.062477,2021-10-14
서초래미안어린이집,시설전체,서울특별시,서초구,어린이집,국민건강증진법 제9조 제4항 제9호,500,100000,02-2155-8176,"서울특별시 서초구 서초대로65길 13-10(서초동, 서초래미안아파트)",서울특별시 서초구 서초동 1682,서초구보건소 건강정책과,37.49742766,127.0191522,2021-10-14
서초상명어린이집,시설전체,서울특별시,서초구,어린이집,국민건강증진법 제9조 제4항 제9호,500,100000,02-2155-8176,서울특별시 서초구 명달로11길 16(서초동),서울특별시 서초구 서초동 1491-12,서초구보건소 건강정책과,37.48345995,127.0031161,2021-10-14
서초숲속별어린이집,시설전체,서울특별시,서초구,어린이집,국민건강증진법 제9조 제4항 제9호,500,100000,02-2155-8176,서울특별시 서초구 헌릉로8길 22(신원동),서울특별시 서초구 신원동 408,서초구보건소 건강정책과,37.45526877,127.0591784,2021-10-14
서초아이자람어린이집,시설전체,서울특별시,서초구,어린이집,국민건강증진법 제9조 제4항 제9호,500,100000,02-2155-8176,서울특별시 서초구 사임당로20길 48-4(서초동),서울특별시 서초구 서초동 1614-34,서초구보건소 건강정책과,37.48903334,127.0222483,2021-10-14
서초양재어린이집,시설전체,서울특별시,서초구,어린이집,국민건강증진법 제9조 제4항 제9호,500,100000,02-2155-8176,서울특별시 서초구 강남대로34길 46-12(양재동),서울특별시 서초구 양재동 8-58,서초구보건소 건강정책과,37.48330377,127.0385385,2021-10-14
서초어린이집,시설전체,서울특별시,서초구,어린이집,국민건강증진법 제9조 제4항 제9호,500,100000,02-2155-8176,서울특별시 서초구 남부순환로 2271-1(방배동),서울특별시 서초구 방배동 1027-6,서초구보건소 건강정책과,37.47467696,127.0002351,2021-10-14
서초에코리치어린이집,시설전체,서울특별시,서초구,어린이집,국민건강증진법 제9조 제4항 제9호,500,100000,02-2155-8176,서울특별시 서초구 양재대로2길 109(우면동),서울특별시 서초구 우면동 753,서초구보건소 건강정책과,37.45611532,127.0137843,2021-10-14
서초연꽃어린이집,시설전체,서울특별시,서초구,어린이집,국민건강증진법 제9조 제4항 제9호,500,100000,02-2155-8176,서울특별시 서초구 사임당로19길 51(서초동),서울특별시 서초구 서초동 1642-15,서초구보건소 건강정책과,37.49174789,127.0180381,2021-10-14
서초예랑어린이집,시설전체,서울특별시,서초구,어린이집,국민건강증진법 제9조 제4항 제9호,500,100000,02-2155-8176,"서울특별시 서초구 효령로23길 82 103호(방배동, 퍼시픽하우스)",서울특별시 서초구 방배동 929-4,서초구보건소 건강정책과,37.48383096,126.9923704,2021-10-14
서초우주어린이집,시설전체,서울특별시,서초구,어린이집,국민건강증진법 제9조 제4항 제9호,500,100000,02-2155-8176,서울특별시 서초구 동광로18길 22(방배동),서울특별시 서초구 방배동 816-11,서초구보건소 건강정책과,37.49072529,126.989882,2021-10-14
서초이화어린이집,시설전체,서울특별시,서초구,어린이집,국민건강증진법 제9조 제4항 제9호,500,100000,02-2155-8176,서울특별시 서초구 방배로39길 42(방배동),서울특별시 서초구 방배동 769-19,서초구보건소 건강정책과,37.49422089,126.9867424,2021-10-14
서초장미어린이집,시설전체,서울특별시,서초구,어린이집,국민건강증진법 제9조 제4항 제9호,500,100000,02-2155-8176,서울특별시 서초구 남부순환로 2543-5(서초동),서울특별시 서초구 서초동 1353-3,서초구보건소 건강정책과,37.484199,127.0284609,2021-10-14
서초중앙어린이집,시설전체,서울특별시,서초구,어린이집,국민건강증진법 제9조 제4항 제9호,500,100000,02-2155-8176,서울특별시 서초구 남부순환로289길 35(방배동),서울특별시 서초구 방배동 530-55,서초구보건소 건강정책과,37.47679563,126.989097,2021-10-14
서초한별어린이집,시설전체,서울특별시,서초구,어린이집,국민건강증진법 제9조 제4항 제9호,500,100000,02-2155-8176,서울특별시 서초구 마방로2길 15-9(양재동),서울특별시 서초구 양재동 249-12,서초구보건소 건강정책과,37.47330798,127.0396306,2021-10-14
서초현대어린이집,시설전체,서울특별시,서초구,어린이집,국민건강증진법 제9조 제4항 제9호,500,100000,02-2155-8176,서울특별시 서초구 강남대로30길 77(양재동),서울특별시 서초구 양재동 7-56,서초구보건소 건강정책과,37.48304448,127.0415119,2021-10-14
선우어린이집,시설전체,서울특별시,서초구,어린이집,국민건강증진법 제9조 제4항 제9호,500,100000,02-2155-8176,서울특별시 서초구 방배로15길 26(방배동),서울특별시 서초구 방배동 925-13,서초구보건소 건강정책과,37.48389595,126.9942879,2021-10-14
성분도어린이집,시설전체,서울특별시,서초구,어린이집,국민건강증진법 제9조 제4항 제9호,500,100000,02-2155-8176,서울특별시 서초구 방배로 40(방배동),서울특별시 서초구 방배동 1023-3,서초구보건소 건강정책과,37.47843957,126.9999955,2021-10-14
성촌어린이집,시설전체,서울특별시,서초구,어린이집,국민건강증진법 제9조 제4항 제9호,500,100000,02-2155-8176,서울특별시 서초구 성촌6길 1(우면동),서울특별시 서초구 우면동 204-7,서초구보건소 건강정책과,37.46719351,127.0206364,2021-10-14
세화어린이집,시설전체,서울특별시,서초구,어린이집,국민건강증진법 제9조 제4항 제9호,500,100000,02-2155-8176,서울특별시 서초구 방배중앙로27길 36(방배동),서울특별시 서초구 방배동 764-35,서초구보건소 건강정책과,37.49530893,126.9837025,2021-10-14
소망어린이집,시설전체,서울특별시,서초구,어린이집,국민건강증진법 제9조 제4항 제9호,500,100000,02-2155-8176,"서울특별시 서초구 태봉로2길 60 312동 103호(우면동, 서초네이처힐3단지)",서울특별시 서초구 우면동 717,서초구보건소 건강정책과,37.46565291,127.0271833,2021-10-14
수표교어린이집,시설전체,서울특별시,서초구,어린이집,국민건강증진법 제9조 제4항 제9호,500,100000,02-2155-8176,서울특별시 서초구 명달로 52(서초동),서울특별시 서초구 서초동 1488-1,서초구보건소 건강정책과,37.48207891,127.0050088,2021-10-14
신동아어린이집,시설전체,서울특별시,서초구,어린이집,국민건강증진법 제9조 제4항 제9호,500,100000,02-2155-8176,"서울특별시 서초구 사임당로 130 7동 113호(서초동, 신동아아파트)",서울특별시 서초구 서초동 1334,서초구보건소 건강정책과,37.49162785,127.0242301,2021-10-14
신애어린이집,시설전체,서울특별시,서초구,어린이집,국민건강증진법 제9조 제4항 제9호,500,100000,02-2155-8176,서울특별시 서초구 바우뫼로9길 9(우면동),서울특별시 서초구 우면동 68,서초구보건소 건강정책과,37.47184479,127.0265887,2021-10-14
아가야어린이집,시설전체,서울특별시,서초구,어린이집,국민건강증진법 제9조 제4항 제9호,500,100000,02-2155-8176,서울특별시 서초구 방배중앙로15길 22 1층(방배동),서울특별시 서초구 방배동 830-11,서초구보건소 건강정책과,37.4884361,126.9838805,2021-10-14
아띠어린이집,시설전체,서울특별시,서초구,어린이집,국민건강증진법 제9조 제4항 제9호,500,100000,02-2155-8176,서울특별시 서초구 동광로18길 21(방배동),서울특별시 서초구 방배동 854-29,서초구보건소 건강정책과,37.49095958,126.9901895,2021-10-14
아람마주이야기어린이집,시설전체,서울특별시,서초구,어린이집,국민건강증진법 제9조 제4항 제9호,500,100000,02-2155-8176,서울특별시 서초구 동광로12길 12(방배동),서울특별시 서초구 방배동 822-29,서초구보건소 건강정책과,37.49079911,126.9865214,2021-10-14
아이사랑어린이집,시설전체,서울특별시,서초구,어린이집,국민건강증진법 제9조 제4항 제9호,500,100000,02-2155-8176,"서울특별시 서초구 신반포로33길 15 108동 104호(잠원동, 동아아파트)",서울특별시 서초구 잠원동 157,서초구보건소 건강정책과,37.5090446,127.0095233,2021-10-14
아이세상어린이집,시설전체,서울특별시,서초구,어린이집,국민건강증진법 제9조 제4항 제9호,500,100000,02-2155-8176,"서울특별시 서초구 형촌길 15 205동(우면동, 서초네이처힐2단지)",서울특별시 서초구 우면동 712,서초구보건소 건강정책과,37.46329893,127.021463,2021-10-14
안젤로빅스맘어린이집,시설전체,서울특별시,서초구,어린이집,국민건강증진법 제9조 제4항 제9호,500,100000,02-2155-8176,"서울특별시 서초구 양재대로2길 109 103동 104호(우면동, 서초참누리에코리치)",서울특별시 서초구 우면동 753,서초구보건소 건강정책과,37.45611532,127.0137843,2021-10-14
양재2동어린이집,시설전체,서울특별시,서초구,어린이집,국민건강증진법 제9조 제4항 제9호,500,100000,02-2155-8176,서울특별시 서초구 강남대로8길 66-15(양재동),서울특별시 서초구 양재동 341-8,서초구보건소 건강정책과,37.46911829,127.0446746,2021-10-14
양재복지관어린이집,시설전체,서울특별시,서초구,어린이집,국민건강증진법 제9조 제4항 제9호,500,100000,02-2155-8176,서울특별시 서초구 남부순환로 2610(양재동),서울특별시 서초구 양재동 11-13,서초구보건소 건강정책과,37.48452846,127.0361631,2021-10-14
양재키움어린이집,시설전체,서울특별시,서초구,어린이집,국민건강증진법 제9조 제4항 제9호,500,100000,02-2155-8176,"서울특별시 서초구 동산로14길 13 라동 101호(양재동, 초원파크빌)",서울특별시 서초구 양재동 391-14,서초구보건소 건강정책과,37.47169072,127.0468783,2021-10-14
양지1어린이집,시설전체,서울특별시,서초구,어린이집,국민건강증진법 제9조 제4항 제9호,500,100000,02-2155-8176,서울특별시 서초구 샘마을길 73(내곡동),서울특별시 서초구 내곡동 산 13-336,서초구보건소 건강정책과,37.46346902,127.0704296,2021-10-14
양지2어린이집,시설전체,서울특별시,서초구,어린이집,국민건강증진법 제9조 제4항 제9호,500,100000,02-2155-8176,서울특별시 서초구 샘마을길 73(내곡동),서울특별시 서초구 내곡동 산 13-336,서초구보건소 건강정책과,37.46346902,127.0704296,2021-10-14
에덴어린이집,시설전체,서울특별시,서초구,어린이집,국민건강증진법 제9조 제4항 제9호,500,100000,02-2155-8176,서울특별시 서초구 방배로19길 36-21(방배동),서울특별시 서초구 방배동 322-4,서초구보건소 건강정책과,37.48494463,126.9926687,2021-10-14
에코맘어린이집,시설전체,서울특별시,서초구,어린이집,국민건강증진법 제9조 제4항 제9호,500,100000,02-2155-8176,"서울특별시 서초구 신반포로 32 22동 106호(반포동, 에이아이디차관주택)",서울특별시 서초구 반포동 968,서초구보건소 건강정책과,37.50071216,126.9912377,2021-10-14
에코비어린이집,시설전체,서울특별시,서초구,어린이집,국민건강증진법 제9조 제4항 제9호,500,100000,02-2155-8176,"서울특별시 서초구 잠원로 150 3동 102호(잠원동, 잠원한신아파트)",서울특별시 서초구 잠원동 56-3,서초구보건소 건강정책과,37.51633536,127.0113521,2021-10-14
열매어린이집,시설전체,서울특별시,서초구,어린이집,국민건강증진법 제9조 제4항 제9호,500,100000,02-2155-8176,"서울특별시 서초구 태봉로2길 10(우면동, 서초네이처힐7단지)",서울특별시 서초구 우면동 735,서초구보건소 건강정책과,37.4620461,127.0232666,2021-10-14
영광어린이집,시설전체,서울특별시,서초구,어린이집,국민건강증진법 제9조 제4항 제9호,500,100000,02-2155-8176,서울특별시 서초구 서초대로19길 59-4(방배동),서울특별시 서초구 방배동 833-25,서초구보건소 건강정책과,37.48952514,126.9897419,2021-10-14
영어린이집,시설전체,서울특별시,서초구,어린이집,국민건강증진법 제9조 제4항 제9호,500,100000,02-2155-8176,"서울특별시 서초구 잠원로 136 345동 102호(잠원동, 신반포한신아파트)",서울특별시 서초구 잠원동 61-1,서초구보건소 건강정책과,37.51530118,127.0093793,2021-10-14
예닮어린이집,시설전체,서울특별시,서초구,어린이집,국민건강증진법 제9조 제4항 제9호,500,100000,02-2155-8176,서울특별시 서초구 방배천로24길 38(방배동),서울특별시 서초구 방배동 954-2,서초구보건소 건강정책과,37.48470612,126.9856134,2021-10-14
예랑어린이집,시설전체,서울특별시,서초구,어린이집,국민건강증진법 제9조 제4항 제9호,500,100000,02-2155-8176,서울특별시 서초구 청두곶길 46(방배동),서울특별시 서초구 방배동 460-21,서초구보건소 건강정책과,37.48078077,126.9855644,2021-10-14
예쁜어린이집,시설전체,서울특별시,서초구,어린이집,국민건강증진법 제9조 제4항 제9호,500,100000,02-2155-8176,"서울특별시 서초구 서초중앙로29길 16-8(반포동, 대림빌라)",서울특별시 서초구 반포동 45-1,서초구보건소 건강정책과,37.4994866,127.0110058,2021-10-14
오즈의마법사어린이집,시설전체,서울특별시,서초구,어린이집,국민건강증진법 제9조 제4항 제9호,500,100000,02-2155-8176,"서울특별시 서초구 신반포로33길 15 107동 103호(잠원동, 동아아파트)",서울특별시 서초구 잠원동 157,서초구보건소 건강정책과,37.5090446,127.0095233,2021-10-14
온무리어린이집,시설전체,서울특별시,서초구,어린이집,국민건강증진법 제9조 제4항 제9호,500,100000,02-2155-8176,서울특별시 서초구 남부순환로364길 7-4(양재동),서울특별시 서초구 양재동 2-33,서초구보건소 건강정책과,37.48447298,127.0405365,2021-10-14
우리어린이집,시설전체,서울특별시,서초구,어린이집,국민건강증진법 제9조 제4항 제9호,500,100000,02-2155-8176,서울특별시 서초구 서초대로28길 16(방배동),서울특별시 서초구 방배동 896-9,서초구보건소 건강정책과,37.48760095,126.9956128,2021-10-14
우면어린이집,시설전체,서울특별시,서초구,어린이집,국민건강증진법 제9조 제4항 제9호,500,100000,02-2155-8176,"서울특별시 서초구 바우뫼로7길 11(우면동, 우면주공아파트)",서울특별시 서초구 우면동 63,서초구보건소 건강정책과,37.46986315,127.0238659,2021-10-14
우성어린이집,시설전체,서울특별시,서초구,어린이집,국민건강증진법 제9조 제4항 제9호,500,100000,02-2155-8176,"서울특별시 서초구 방배선행길 1 102동 103호(방배동,우성아파트)",서울특별시 서초구 방배동 2525,서초구보건소 건강정책과,37.47500718,126.9821559,2021-10-14
유하아이비클럽어린이집,시설전체,서울특별시,서초구,어린이집,국민건강증진법 제9조 제4항 제9호,500,100000,02-2155-8176,"서울특별시 서초구 서초중앙로24길 33(서초동, 서초교대이편한세상)",서울특별시 서초구 서초동 1686-9,서초구보건소 건강정책과,37.49575211,127.0170529,2021-10-14
은빛어린이집,시설전체,서울특별시,서초구,어린이집,국민건강증진법 제9조 제4항 제9호,500,100000,02-2155-8176,"서울특별시 서초구 효령로68길 13 21동 102호(서초동, 현대아파트)",서울특별시 서초구 서초동 1436-1,서초구보건소 건강정책과,37.48739812,127.0252977,2021-10-14
은혜어린이집,시설전체,서울특별시,서초구,어린이집,국민건강증진법 제9조 제4항 제9호,500,100000,02-2155-8176,서울특별시 서초구 마방로10길 54-19(양재동),서울특별시 서초구 양재동 272,서초구보건소 건강정책과,37.47469393,127.044167,2021-10-14
이노키즈어린이집,시설전체,서울특별시,서초구,어린이집,국민건강증진법 제9조 제4항 제9호,500,100000,02-2155-8176,서울특별시 서초구 서초중앙로8길 47(서초동),서울특별시 서초구 서초동 1618-5,서초구보건소 건강정책과,37.48730771,127.0181139,2021-10-14
자연닮은꼬마숲어린이집,시설전체,서울특별시,서초구,어린이집,국민건강증진법 제9조 제4항 제9호,500,100000,02-2155-8176,"서울특별시 서초구 사임당로23길 58 301동 105호(서초동, 현대3차아파트)",서울특별시 서초구 서초동 1644,서초구보건소 건강정책과,37.49255825,127.0213365,2021-10-14
잠원꿈밭어린이집,시설전체,서울특별시,서초구,어린이집,국민건강증진법 제9조 제4항 제9호,500,100000,02-2155-8176,서울특별시 서초구 강남대로95길 48-58(잠원동),서울특별시 서초구 잠원동 24-11,서초구보건소 건강정책과,37.51375066,127.0165956,2021-10-14
잠원시온어린이집,시설전체,서울특별시,서초구,어린이집,국민건강증진법 제9조 제4항 제9호,500,100000,02-2155-8176,"서울특별시 서초구 잠원로 150 4동 107호(잠원동, 잠원한신아파트)",서울특별시 서초구 잠원동 56-3,서초구보건소 건강정책과,37.51633536,127.0113521,2021-10-14
잠원어린이집,시설전체,서울특별시,서초구,어린이집,국민건강증진법 제9조 제4항 제9호,500,100000,02-2155-8176,"서울특별시 서초구 신반포로33길 15(잠원동, 동아아파트)",서울특별시 서초구 잠원동 157,서초구보건소 건강정책과,37.5090446,127.0095233,2021-10-14
정다운어린이집,시설전체,서울특별시,서초구,어린이집,국민건강증진법 제9조 제4항 제9호,500,100000,02-2155-8176,"서울특별시 서초구 양재대로2길 90 207동 101호(우면동, 서초힐스)",서울특별시 서초구 우면동 773,서초구보건소 건강정책과,37.45760689,127.0175687,2021-10-14
조은아이어린이집,시설전체,서울특별시,서초구,어린이집,국민건강증진법 제9조 제4항 제9호,500,100000,02-2155-8176,"서울특별시 서초구 사평대로 310-4 1동 103호(반포동, 반포현대아파트)",서울특별시 서초구 반포동 30-15,서초구보건소 건강정책과,37.5099993,127.018457,2021-10-14
조이어린이집,시설전체,서울특별시,서초구,어린이집,국민건강증진법 제9조 제4항 제9호,500,100000,02-2155-8176,서울특별시 서초구 본마을길 45-5(신원동),서울특별시 서초구 신원동 462-30,서초구보건소 건강정책과,37.45401313,127.0546702,2021-10-14
지아이에이어린이집,시설전체,서울특별시,서초구,어린이집,국민건강증진법 제9조 제4항 제9호,500,100000,02-2155-8176,서울특별시 서초구 잠원로 150 1-103호(잠원동),서울특별시 서초구 잠원동 56-3,서초구보건소 건강정책과,37.51633536,127.0113521,2021-10-14
청계산반디빅스맘어린이집,시설전체,서울특별시,서초구,어린이집,국민건강증진법 제9조 제4항 제9호,500,100000,02-2155-8176,서울특별시 서초구 청계산로11길 10(신원동),서울특별시 서초구 신원동 207,서초구보건소 건강정책과,37.44750663,127.0571653,2021-10-14
초록어린이집,시설전체,서울특별시,서초구,어린이집,국민건강증진법 제9조 제4항 제9호,500,100000,02-2155-8176,서울특별시 서초구 명달로20길 33(서초동),서울특별시 서초구 서초동 1514-4,서초구보건소 건강정책과,37.48616287,127.0059746,2021-10-14
칼비테영재어린이집,시설전체,서울특별시,서초구,어린이집,국민건강증진법 제9조 제4항 제9호,500,100000,02-2155-8176,"서울특별시 서초구 방배천로2안길 10 101동 101호(방배동, 신주아파트)",서울특별시 서초구 방배동 449-1,서초구보건소 건강정책과,37.47741495,126.9840592,2021-10-14
코코어린이집,시설전체,서울특별시,서초구,어린이집,국민건강증진법 제9조 제4항 제9호,500,100000,02-2155-8176,서울특별시 서초구 명달로4길 8(서초동),서울특별시 서초구 서초동 1467-2,서초구보건소 건강정책과,37.47990985,127.006372,2021-10-14
키즈랜드어린이집,시설전체,서울특별시,서초구,어린이집,국민건강증진법 제9조 제4항 제9호,500,100000,02-2155-8176,"서울특별시 서초구 양재대로2길 90(우면동, 서초네이처힐7단지)",서울특별시 서초구 우면동 773,서초구보건소 건강정책과,37.45760689,127.0175687,2021-10-14
키즈열매어린이집,시설전체,서울특별시,서초구,어린이집,국민건강증진법 제9조 제4항 제9호,500,100000,02-2155-8176,"서울특별시 서초구 태봉로2길 10 702동 102호(우면동, 서초네이처힐7단지)",서울특별시 서초구 우면동 735,서초구보건소 건강정책과,37.4620461,127.0232666,2021-10-14
킨더아카데미어린이집,시설전체,서울특별시,서초구,어린이집,국민건강증진법 제9조 제4항 제9호,500,100000,02-2155-8176,"서울특별시 서초구 서운로 200(서초동, 롯데캐슬클래식아파트)",서울특별시 서초구 서초동 1312-3,서초구보건소 건강정책과,37.50119667,127.0236225,2021-10-14
킹스키즈어린이집,시설전체,서울특별시,서초구,어린이집,국민건강증진법 제9조 제4항 제9호,500,100000,02-2155-8176,서울특별시 서초구 방배로15길 22(방배동),서울특별시 서초구 방배동 926-30,서초구보건소 건강정책과,37.48398966,126.9945095,2021-10-14
텀블랜드어린이집,시설전체,서울특별시,서초구,어린이집,국민건강증진법 제9조 제4항 제9호,500,100000,02-2155-8176,서울특별시 서초구 바우뫼로37길 9(양재동),서울특별시 서초구 양재동 5-16,서초구보건소 건강정책과,37.47924022,127.0396699,2021-10-14
토마토어린이집,시설전체,서울특별시,서초구,어린이집,국민건강증진법 제9조 제4항 제9호,500,100000,02-2155-8176,"서울특별시 서초구 서초중앙로24길 43 101동 103호(서초동, 유원아파트)",서울특별시 서초구 서초동 1687,서초구보건소 건강정책과,37.49588883,127.0185954,2021-10-14
파란꿈어린이집,시설전체,서울특별시,서초구,어린이집,국민건강증진법 제9조 제4항 제9호,500,100000,02-2155-8176,"서울특별시 서초구 잠원로 37-6 202동 107호(잠원동, 신반포한신아파트)",서울특별시 서초구 잠원동 70,서초구보건소 건강정책과,37.51007917,127.00618,2021-10-14
파란나라어린이집,시설전체,서울특별시,서초구,어린이집,국민건강증진법 제9조 제4항 제9호,500,100000,02-2155-8176,서울특별시 서초구 서초대로1길 30(방배동),서울특별시 서초구 방배동 1344,서초구보건소 건강정책과,37.48923252,126.9836134,2021-10-14
파랑새어린이집,시설전체,서울특별시,서초구,어린이집,국민건강증진법 제9조 제4항 제9호,500,100000,02-2155-8176,"서울특별시 서초구 효령로34길 59 3동 102호(방배동, 삼익아파트)",서울특별시 서초구 방배동 1018-1,서초구보건소 건강정책과,37.47911524,127.0008863,2021-10-14
푸르니서초 어린이집,시설전체,서울특별시,서초구,어린이집,국민건강증진법 제9조 제4항 제9호,500,100000,02-2155-8176,서울특별시 서초구 효령로67길 4(서초동),서울특별시 서초구 서초동 1607-5,서초구보건소 건강정책과,37.48744005,127.0238172,2021-10-14
푸르니작은 어린이집,시설전체,서울특별시,서초구,어린이집,국민건강증진법 제9조 제4항 제9호,500,100000,02-2155-8176,서울특별시 서초구 서리풀4길 9(서초동),서울특별시 서초구 서초동 1613-22,서초구보건소 건강정책과,37.48822983,127.0212213,2021-10-14
푸른솔어린이집,시설전체,서울특별시,서초구,어린이집,국민건강증진법 제9조 제4항 제9호,500,100000,02-2155-8176,서울특별시 서초구 홍씨마을길 43-3(신원동),서울특별시 서초구 신원동 285,서초구보건소 건강정책과,37.45194202,127.0663637,2021-10-14
프리오리어린이집,시설전체,서울특별시,서초구,어린이집,국민건강증진법 제9조 제4항 제9호,500,100000,02-2155-8176,서울특별시 서초구 서초대로25길 97(방배동),서울특별시 서초구 방배동 838-27,서초구보건소 건강정책과,37.49185711,126.9917906,2021-10-14
하늘숲 어린이집,시설전체,서울특별시,서초구,어린이집,국민건강증진법 제9조 제4항 제9호,500,100000,02-2155-8176,서울특별시 서초구 본마을길 37(신원동),서울특별시 서초구 신원동 458-10,서초구보건소 건강정책과,37.45420084,127.0540193,2021-10-14
한사랑어린이집,시설전체,서울특별시,서초구,어린이집,국민건강증진법 제9조 제4항 제9호,500,100000,02-2155-8176,서울특별시 서초구 방배천로8길 35-3(방배동),서울특별시 서초구 방배동 463-15,서초구보건소 건강정책과,37.4806082,126.9845967,2021-10-14
한신어린이집,시설전체,서울특별시,서초구,어린이집,국민건강증진법 제9조 제4항 제9호,500,100000,02-2155-8176,"서울특별시 서초구 잠원로 37-48 205동 105호(잠원동, 신반포한신아파트)",서울특별시 서초구 잠원동 70,서초구보건소 건강정책과,37.51007917,127.00618,2021-10-14
함께크는어린이집,시설전체,서울특별시,서초구,어린이집,국민건강증진법 제9조 제4항 제9호,500,100000,02-2155-8176,서울특별시 서초구 바우뫼로11안길 12(우면동),서울특별시 서초구 우면동 28-7,서초구보건소 건강정책과,37.47334404,127.026743,2021-10-14
해돋이어린이집,시설전체,서울특별시,서초구,어린이집,국민건강증진법 제9조 제4항 제9호,500,100000,02-2155-8176,서울특별시 서초구 방배로33길 58-3(방배동),서울특별시 서초구 방배동 818-15,서초구보건소 건강정책과,37.49113954,126.9875933,2021-10-14
해오름키즈스쿨어린이집,시설전체,서울특별시,서초구,어린이집,국민건강증진법 제9조 제4항 제9호,500,100000,02-2155-8176,"서울특별시 서초구 방배로 14 7동 101호(방배동, 임광아파트)",서울특별시 서초구 방배동 1015,서초구보건소 건강정책과,37.47652276,127.0012438,2021-10-14
해와달어린이집,시설전체,서울특별시,서초구,어린이집,국민건강증진법 제9조 제4항 제9호,500,100000,02-2155-8176,"서울특별시 서초구 태봉로2길 60 311동 104호(우면동, 서초네이처힐3단지)",서울특별시 서초구 우면동 717,서초구보건소 건강정책과,37.46565291,127.0271833,2021-10-14
햇님어린이집,시설전체,서울특별시,서초구,어린이집,국민건강증진법 제9조 제4항 제9호,500,100000,02-2155-8176,서울특별시 서초구 서리풀6길 28-4(서초동),서울특별시 서초구 서초동 1613-26,서초구보건소 건강정책과,37.48869834,127.0213255,2021-10-14
햇살마루어린이집,시설전체,서울특별시,서초구,어린이집,국민건강증진법 제9조 제4항 제9호,500,100000,02-2155-8176,"서울특별시 서초구 잠원로 202-11 2동 108호(잠원동, 한신잠원훼미리)",서울특별시 서초구 잠원동 51,서초구보건소 건강정책과,37.51978768,127.0143345,2021-10-14
허니비어린이집,시설전체,서울특별시,서초구,어린이집,국민건강증진법 제9조 제4항 제9호,500,100000,02-2155-8176,"서울특별시 서초구 서초대로1길 30 105동 101호(방배동, 현대아파트)",서울특별시 서초구 방배동 1344,서초구보건소 건강정책과,37.48923252,126.9836134,2021-10-14
헤브론 어린이집,시설전체,서울특별시,서초구,어린이집,국민건강증진법 제9조 제4항 제9호,500,100000,02-2155-8176,서울특별시 서초구 동산로13길 35(양재동),서울특별시 서초구 양재동 393-3,서초구보건소 건강정책과,37.47233011,127.0430034,2021-10-14
현대양재어린이집,시설전체,서울특별시,서초구,어린이집,국민건강증진법 제9조 제4항 제9호,500,100000,02-2155-8176,서울특별시 서초구 염곡말길 17-6(염곡동),서울특별시 서초구 염곡동 106-10,서초구보건소 건강정책과,37.46233242,127.0521308,2021-10-14
구룡 유치원,시설전체,서울특별시,서초구,유치원,국민건강증진법 제9조 제4항 제9호,500,100000,02-2155-8176,서울특별시 서초구 논현로5길 31-11(양재동),서울특별시 서초구 양재동 399-1,서초구보건소 건강정책과,37.47112511,127.0491534,2021-10-14
동우 유치원,시설전체,서울특별시,서초구,유치원,국민건강증진법 제9조 제4항 제9호,500,100000,02-2155-8176,서울특별시 서초구 명달로22길 24(서초동),서울특별시 서초구 서초동 1514-2,서초구보건소 건강정책과,37.48642959,127.0055766,2021-10-14
동화 유치원,시설전체,서울특별시,서초구,유치원,국민건강증진법 제9조 제4항 제9호,500,100000,02-2155-8176,서울특별시 서초구 서초중앙로 24길 43(서초동),서울특별시 서초구 서초동 1687,서초구보건소 건강정책과,37.49588883,127.0185954,2021-10-14
반포성모 유치원,시설전체,서울특별시,서초구,유치원,국민건강증진법 제9조 제4항 제9호,500,100000,02-2155-8176,서울특별시 서초구 신반포로 15길 18(반포동),서울특별시 서초구 반포동 4-1,서초구보건소 건강정책과,37.5049543,126.9946301,2021-10-14
반포자이 유치원,시설전체,서울특별시,서초구,유치원,국민건강증진법 제9조 제4항 제9호,500,100000,02-2155-8176,서울특별시 서초구 신반포로 270(반포동),서울특별시 서초구 반포동 20-43,서초구보건소 건강정책과,37.50785869,127.0115816,2021-10-14
반포초병설 유치원,시설전체,서울특별시,서초구,유치원,국민건강증진법 제9조 제4항 제9호,500,100000,02-2155-8176,서울특별시 서초구 신반포로 55-4(반포동),서울특별시 서초구 반포동 937,서초구보건소 건강정책과,37.50248537,126.9917397,2021-10-14
방배초병설 유치원,시설전체,서울특별시,서초구,유치원,국민건강증진법 제9조 제4항 제9호,500,100000,02-2155-8176,서울특별시 서초구 방배중앙로 13길 26(방배동),서울특별시 서초구 방배동 861-1,서초구보건소 건강정책과,37.48676419,126.9871372,2021-10-14
새성민 유치원,시설전체,서울특별시,서초구,유치원,국민건강증진법 제9조 제4항 제9호,500,100000,02-2155-8176,서울특별시 서초구 효령로 110(방배동),서울특별시 서초구 방배동 981-2,서초구보건소 건강정책과,37.48067762,126.9961062,2021-10-14
새순 유치원,시설전체,서울특별시,서초구,유치원,국민건강증진법 제9조 제4항 제9호,500,100000,02-2155-8176,서울특별시 서초구 서초대로 15길 57(방배동),서울특별시 서초구 방배동 831-12,서초구보건소 건강정책과,37.48906371,126.9885796,2021-10-14
서래초병설 유치원,시설전체,서울특별시,서초구,유치원,국민건강증진법 제9조 제4항 제9호,500,100000,02-2155-8176,서울특별시 서초구 방배로 260(방배동),서울특별시 서초구 방배동 771,서초구보건소 건강정책과,37.49640526,126.9901572,2021-10-14
서초 유치원,시설전체,서울특별시,서초구,유치원,국민건강증진법 제9조 제4항 제9호,500,100000,02-2155-8176,서울특별시 서초구 양재대로 2길 100-64(우면동),서울특별시 서초구 우면동 769,서초구보건소 건강정책과,37.45609338,127.0162166,2021-10-14
석문 유치원,시설전체,서울특별시,서초구,유치원,국민건강증진법 제9조 제4항 제9호,500,100000,02-2155-8176,서울특별시 서초구 서초대로 64길 73(서초동),서울특별시 서초구 서초동 1634-1,서초구보건소 건강정책과,37.49288569,127.0217401,2021-10-14
신반포중앙 유치원,시설전체,서울특별시,서초구,유치원,국민건강증진법 제9조 제4항 제9호,500,100000,02-2155-8176,서울특별시 서초구 나루터로 4길 58(잠원동),서울특별시 서초구 잠원동 60-3,서초구보건소 건강정책과,37.5104571,127.0125049,2021-10-14
언남초병설 유치원,시설전체,서울특별시,서초구,유치원,국민건강증진법 제9조 제4항 제9호,500,100000,02-2155-8176,서울특별시 서초구 헌릉로8길 42(내곡동),서울특별시 서초구 내곡동 122,서초구보건소 건강정책과,37.45411333,127.0614366,2021-10-14
여나 유치원,시설전체,서울특별시,서초구,유치원,국민건강증진법 제9조 제4항 제9호,500,100000,02-2155-8176,서울특별시 서초구 서초중앙로 200(서초동),서울특별시 서초구 서초동 1685,서초구보건소 건강정책과,37.50042675,127.0154753,2021-10-14
영생 유치원,시설전체,서울특별시,서초구,유치원,국민건강증진법 제9조 제4항 제9호,500,100000,02-2155-8176,서울특별시 서초구 신반포로 19길 30(반포동),서울특별시 서초구 반포동 4-10,서초구보건소 건강정책과,37.5050048,126.9956797,2021-10-14
영유 유치원,시설전체,서울특별시,서초구,유치원,국민건강증진법 제9조 제4항 제9호,500,100000,02-2155-8176,서울특별시 서초구 효령로 34길 72(방배동),서울특별시 서초구 방배동 1020-3,서초구보건소 건강정책과,37.47863779,127.0007507,2021-10-14
예원유치원,시설전체,서울특별시,서초구,유치원,국민건강증진법 제9조 제4항 제9호,500,100000,02-2155-8176,서울특별시 서초구 태봉로2길 21(우면동),서울특별시 서초구 우면동 731,서초구보건소 건강정책과,37.46178626,127.024962,2021-10-14
우면초병설 유치원,시설전체,서울특별시,서초구,유치원,국민건강증진법 제9조 제4항 제9호,500,100000,02-2155-8176,서울특별시 서초구 태봉로 59(우면동),서울특별시 서초구 우면동 690,서초구보건소 건강정책과,37.46470939,127.0237693,2021-10-14
우솔초병설 유치원,시설전체,서울특별시,서초구,유치원,국민건강증진법 제9조 제4항 제9호,500,100000,02-2155-8176,서울특별시 서초구 양재대로 2길 74(우면동),서울특별시 서초구 우면동 774,서초구보건소 건강정책과,37.45709422,127.0192756,2021-10-14
우암초병설 유치원,시설전체,서울특별시,서초구,유치원,국민건강증진법 제9조 제4항 제9호,500,100000,02-2155-8176,서울특별시 서초구 바우뫼로 7길 38(우면동),서울특별시 서초구 우면동 58,서초구보건소 건강정책과,37.47229591,127.023722,2021-10-14
우정 유치원,시설전체,서울특별시,서초구,유치원,국민건강증진법 제9조 제4항 제9호,500,100000,02-2155-8176,서울특별시 서초구 서초대로 70길 32(서초동),서울특별시 서초구 서초동 1324-2,서초구보건소 건강정책과,37.49390576,127.0234303,2021-10-14
원명초병설 유치원,시설전체,서울특별시,서초구,유치원,국민건강증진법 제9조 제4항 제9호,500,100000,02-2155-8176,서울특별시 서초구 고무래로 90-6(서초동),서울특별시 서초구 서초동 1685-1,서초구보건소 건강정책과,37.50077618,127.0167058,2021-10-14
육영 유치원,시설전체,서울특별시,서초구,유치원,국민건강증진법 제9조 제4항 제9호,500,100000,02-2155-8176,서울특별시 서초구 방배로 6길 18(방배동),서울특별시 서초구 방배동 1020-10,서초구보건소 건강정책과,37.4791984,127.0004929,2021-10-14
천사유치원,시설전체,서울특별시,서초구,유치원,국민건강증진법 제9조 제4항 제9호,500,100000,02-2155-8176,서울특별시 서초구 바우뫼로 99(양재동),서울특별시 서초구 양재동 154-2,서초구보건소 건강정책과,37.47478793,127.032084,2021-10-14
청계숲유치원,시설전체,서울특별시,서초구,유치원,국민건강증진법 제9조 제4항 제9호,500,100000,02-2155-8176,서울특별시 서초구 청계산로11길 14(신원동),서울특별시 서초구 신원동 247,서초구보건소 건강정책과,37.44779467,127.0577441,2021-10-14
하나 유치원,시설전체,서울특별시,서초구,유치원,국민건강증진법 제9조 제4항 제9호,500,100000,02-2155-8176,서울특별시 서초구 잠원로 8길 13(잠원동),서울특별시 서초구 잠원동 56-3,서초구보건소 건강정책과,37.5152074,127.0102706,2021-10-14
서초구보건소,시설전체(부지전체),서울특별시,서초구,보건소,국민건강증진법 제9조 제4항 제8호,500,100000,02-2155-8176,서울특별시 서초구 남부순환로 2584(서초동),서울특별시 서초구 서초동 1376-3,서초구보건소 건강정책과,37.48362486,127.0326848,2021-10-14
서초구방배보건지소,시설전체(부지전체),서울특별시,서초구,보건지소,국민건강증진법 제9조 제4항 제8호,500,100000,02-2155-8176,"서울특별시 서초구 방배로 173(방배동, 방배열린문화센터(방배4동주민센터))",서울특별시 서초구 방배동 852-14,서초구보건소 건강정책과,37.48900635,126.9922432,2021-10-14
서울특별시어린이병원,시설전체(부지전체),서울특별시,서초구,종합병원,국민건강증진법 제9조 제4항 제8호,500,100000,02-2155-8176,서울특별시 서초구 헌릉로 260(내곡동),서울특별시 서초구 내곡동 375,서초구보건소 건강정책과,37.45571764,127.0688536,2021-10-14
서울중앙지방법원 등기국,청사부지전체(주차장포함),서울특별시,서초구,청사,국민건강증진법 제9조 제4항 제3호,4784,100000,02-2155-8176,서울특별시 서초구 법원로3길 14(서초동),서울특별시 서초구 서초동 1707-4,서초구보건소 건강정책과,37.49364107,127.008671,2021-10-14
방배경찰서,청사부지전체(주차장포함),서울특별시,서초구,청사,국민건강증진법 제9조 제4항 제2호,5368,100000,02-2155-8176,서울특별시 서초구 방배천로 54(방배동),서울특별시 서초구 방배동 455-10,서초구보건소 건강정책과,37.48177205,126.9827874,2021-10-14
서울가정행정법원 청사,청사부지전체(주차장포함),서울특별시,서초구,청사,국민건강증진법 제9조 제4항 제3호,7021,100000,02-2155-8176,서울특별시 서초구 강남대로 193(양재동),서울특별시 서초구 양재동 25-3,서초구보건소 건강정책과,37.48124518,127.0361887,2021-10-14
서울교통공사,청사부지전체(주차장포함),서울특별시,서초구,청사,국민건강증진법 제9조 제4항 제2호,7121,100000,02-2155-8176,서울특별시 서초구 효령로 5(방배동),서울특별시 서초구 방배동 447-7,서초구보건소 건강정책과,37.47655368,126.9847738,2021-10-14
서초경찰서,청사부지전체(주차장포함),서울특별시,서초구,청사,국민건강증진법 제9조 제4항 제2호,7793,100000,02-2155-8176,서울특별시 서초구 반포대로 179(서초동),서울특별시 서초구 서초동 1726-1,서초구보건소 건강정책과,37.49574242,127.0051611,2021-10-14
서울소방학교,청사부지전체(주차장포함),서울특별시,서초구,청사,국민건강증진법 제9조 제4항 제2호,7921,100000,02-2155-8176,서울특별시 서초구 남부순환로340길 29(서초동),서울특별시 서초구 서초동 391,서초구보건소 건강정책과,37.4796841,127.0241404,2021-10-14
서초구청,청사부지전체(주차장포함),서울특별시,서초구,지방자치단체청사,국민건강증진법 제9조 제4항 제2호,16618,100000,02-2155-8176,서울특별시 서초구 신반포로 194(서초동),서울특별시 서초구 서초동 1376-3,서초구보건소 건강정책과,37.50643547,127.0068357,2021-10-14
서울지방조달청,청사부지전체(주차장포함),서울특별시,서초구,청사,국민건강증진법 제9조 제4항 제2호,27720,100000,02-2155-8176,서울특별시 서초구 반포대로 217(반포동),서울특별시 서초구 반포동 520-3,서초구보건소 건강정책과,37.49949788,127.0033339,2021-10-14
서울시 인재개발원,청사부지전체(주차장포함),서울특별시,서초구,청사,국민건강증진법 제9조 제4항 제2호,37068,100000,02-2155-8176,서울특별시 서초구 남부순환로340길 58(서초동),서울특별시 서초구 서초동 391,서초구보건소 건강정책과,37.48119434,127.0234353,2021-10-14
대검찰청,청사부지전체(주차장포함),서울특별시,서초구,청사,국민건강증진법 제9조 제4항 제2호,39096,100000,02-2155-8176,서울특별시 서초구 반포대로 157(서초동),서울특별시 서초구 서초동 1730-1,서초구보건소 건강정책과,37.494153,127.0061697,2021-10-14
국립 외교원,청사부지전체(주차장포함),서울특별시,서초구,청사,국민건강증진법 제9조 제4항 제2호,52932,100000,02-2155-8176,서울특별시 서초구 남부순환로 2572(서초동),서울특별시 서초구 서초2동 1376-2,서초구보건소 건강정책과,37.48377303,127.0311879,2021-10-14
서울특별시 교육청 교육연수원,청사부지전체(주차장포함),서울특별시,서초구,청사,국민건강증진법 제9조 제4항 제2호,55175,100000,02-2155-8176,서울특별시 서초구 남부순환로 2248(방배동),서울특별시 서초구 방배동 630,서초구보건소 건강정책과,37.4721613,126.997115,2021-10-14
대법원청사,청사부지전체(주차장포함),서울특별시,서초구,청사,국민건강증진법 제9조 제4항 제3호,57998,100000,02-2155-8176,서울특별시 서초구 서초대로 219(서초동),서울특별시 서초구 서초동 967,서초구보건소 건강정책과,37.49240869,127.005274,2021-10-14
서울중앙지방검찰청,청사부지전체(주차장포함),서울특별시,서초구,청사,국민건강증진법 제9조 제4항 제2호,60727,100000,02-2155-8176,서울특별시 서초구 반포대로 158(서초동),서울특별시 서초구 서초동 1724,서초구보건소 건강정책과,37.49504398,127.0080681,2021-10-14
서울고등검찰청,청사부지전체(주차장포함),서울특별시,서초구,청사,국민건강증진법 제9조 제4항 제2호,60727,100000,02-2155-8176,서울특별시 서초구 반포대로 158(서초동),서울특별시 서초구 서초동 1724,서초구보건소 건강정책과,37.49504398,127.0080681,2021-10-14
서울중앙지방법원,청사부지전체(주차장포함),서울특별시,서초구,청사,국민건강증진법 제9조 제4항 제3호,92135,100000,02-2155-8176,서울특별시 서초구 서초중앙로 157(서초동),서울특별시 서초구 서초동 1701-1,서초구보건소 건강정책과,37.49827564,127.0111232,2021-10-14
서울고등법원,청사부지전체(주차장포함),서울특별시,서초구,청사,국민건강증진법 제9조 제4항 제3호,92135,100000,02-2155-8176,서울특별시 서초구 서초중앙로 157(서초동),서울특별시 서초구 서초동 1701-1,서초구보건소 건강정책과,37.49827564,127.0111232,2021-10-14
서울회생법원,청사부지전체(주차장포함),서울특별시,서초구,청사,국민건강증진법 제9조 제4항 제3호,92135,100000,02-2155-8176,서울특별시 서초구 서초중앙로 157(서초동),서울특별시 서초구 서초동 1701-1,서초구보건소 건강정책과,37.49827564,127.0111232,2021-10-14
동덕여자고등학교,학교 출입구로부터50m 이내,서울특별시,서초구,고등학교,서초구 간접흡연피해방지 조례 제5조(서초구 고시 제2012-26호),50,50000,02-2155-8176,서울특별시 서초구 효령로2길 123-5(방배동),서울특별시 서초구 방배동 산82,서초구보건소 건강정책과,37.47587683,126.9919958,2021-10-14
반포고등학교,학교 출입구로부터50m 이내,서울특별시,서초구,고등학교,서초구 간접흡연피해방지 조례 제5조(서초구 고시 제2012-26호),50,50000,02-2155-8176,서울특별시 서초구 고무래로 71(반포동),서울특별시 서초구 반포동 30-19,서초구보건소 건강정책과,37.50270436,127.0165117,2021-10-14
서울고등학교,학교 출입구로부터50m 이내,서울특별시,서초구,고등학교,서초구 간접흡연피해방지 조례 제5조(서초구 고시 제2012-26호),50,50000,02-2155-8176,서울특별시 서초구 효령로 197(서초동),서울특별시 서초구 서초3동 1526-1,서초구보건소 건강정책과,37.48429243,127.0049025,2021-10-14
상문고등학교,학교 출입구로부터50m 이내,서울특별시,서초구,고등학교,서초구 간접흡연피해방지 조례 제5조(서초구 고시 제2012-26호),50,50000,02-2155-8176,서울특별시 서초구 명달로 45(방배동),서울특별시 서초구 방배동 1000-1,서초구보건소 건강정책과,37.47975498,127.0039164,2021-10-14
서울전자고등학교,학교 출입구로부터50m 이내,서울특별시,서초구,고등학교,서초구 간접흡연피해방지 조례 제5조(서초구 고시 제2012-26호),50,50000,02-2155-8176,서울특별시 서초구 과천대로 852-23(방배동),서울특별시 서초구 방배2동 2727,서초구보건소 건강정책과,37.46972083,126.988361,2021-10-14
세화여자고등학교,학교 출입구로부터50m 이내,서울특별시,서초구,고등학교,서초구 간접흡연피해방지 조례 제5조(서초구 고시 제2012-26호),50,50000,02-2155-8176,서울특별시 서초구 신반포로 56-7(반포동),서울특별시 서초구 반포동 13,서초구보건소 건강정책과,37.50199538,126.9942278,2021-10-14
서초고등학교,학교 출입구로부터50m 이내,서울특별시,서초구,고등학교,서초구 간접흡연피해방지 조례 제5조(서초구 고시 제2012-26호),50,50000,02-2155-8176,서울특별시 서초구 반포대로27길 29(서초동),서울특별시 서초구 서초동 1504,서초구보건소 건강정책과,37.48961196,127.0053778,2021-10-14
언남고등학교,학교 출입구로부터50m 이내,서울특별시,서초구,고등학교,서초구 간접흡연피해방지 조례 제5조(서초구 고시 제2012-26호),50,50000,02-2155-8176,서울특별시 서초구 동산로13길 35(양재동),서울특별시 서초구 양재2동 309,서초구보건소 건강정책과,37.47233011,127.0430034,2021-10-14
서문여자고등학교,학교 출입구로부터50m 이내,서울특별시,서초구,고등학교,서초구 간접흡연피해방지 조례 제5조(서초구 고시 제2012-26호),50,50000,02-2155-8176,서울특별시 서초구 동광로12길 84(방배동),서울특별시 서초구 방배동 1514,서초구보건소 건강정책과,37.48891909,126.9845452,2021-10-14
양재고등학교,학교 출입구로부터50m 이내,서울특별시,서초구,고등학교,서초구 간접흡연피해방지 조례 제5조(서초구 고시 제2012-26호),50,50000,02-2155-8176,서울특별시 서초구 남부순환로346길 9(서초동),서울특별시 서초구 서초2동 1376-4,서초구보건소 건강정책과,37.48242128,127.0320783,2021-10-14
세화고등학교,학교 출입구로부터50m 이내,서울특별시,서초구,고등학교,서초구 간접흡연피해방지 조례 제5조(서초구 고시 제2012-26호),50,50000,02-2155-8176,서울특별시 서초구 신반포로 56-7(반포동),서울특별시 서초구 반포본동 753,서초구보건소 건강정책과,37.50199538,126.9942278,2021-10-14
다니엘학교,학교 출입구로부터50m 이내,서울특별시,서초구,고등학교,서초구 간접흡연피해방지 조례 제5조(서초구 고시 제2012-26호),50,50000,02-2155-8176,서울특별시 서초구 헌릉로468길 21-16(내곡동),서울특별시 서초구 내곡동 1-1328,서초구보건소 건강정책과,37.46016345,127.092318,2021-10-14
서초문화예술정보학교,학교 출입구로부터50m 이내,서울특별시,서초구,고등학교,서초구 간접흡연피해방지 조례 제5조(서초구 고시 제2012-26호),50,50000,02-2155-8176,서울특별시 서초구 남부순환로347길 69(서초동),서울특별시 서초구 서초동 1356-1,서초구보건소 건강정책과,37.48806647,127.0299765,2021-10-14
